"DBN","school_name","Num of SAT Test Takers","SAT Critical Reading Avg. Score","SAT Math Avg. Score","SAT Writing Avg. Score","avg_sat_score","AP Test Takers","Total Exams Taken","Number of Exams with scores 3 4 or 5","exams_per_student","high_score_percent","CSD","SCHOOL CODE","avg_class_size","avg_largest_class","avg_smallest_class","frl_percent","ell_percent","sped_percent","asian_per","black_per","hispanic_per","white_per","male_per","female_per","total_enrollment","Total Grads - % of cohort","Dropped Out - % of cohort","lat","long"
"01M292","HENRY STREET SCHOOL FOR INTERNATIONAL STUDIES",29,355,404,363,1122,NA,NA,NA,NA,NA,1,"M292",22.5642857142857,26.5714285714286,18.5,88.6,22.3,24.9,14,29.1,53.8,1.7,61.4,38.6,422,55.1,14.1,40.7137639470005,-73.9852600399997
"01M448","UNIVERSITY NEIGHBORHOOD HIGH SCHOOL",91,383,423,366,1172,39,49,10,1.25641025641026,20.4081632653061,1,"M448",22.23125,27.0625,18.25,71.8,21.1,21.8,29.2,22.6,45.9,2.3,57.4,42.6,394,42.7,16.1,40.7123318510005,-73.9847966249997
"01M450","EAST SIDE COMMUNITY SCHOOL",70,377,402,370,1149,19,21,NA,1.10526315789474,NA,1,"M450",21.2,22.8666666666667,19.4,71.8,5,26.4,9.7,23.9,55.4,10.4,54.7,45.3,598,77.8,5.6,40.7297826870005,-73.9830414409997
"01M458","FORSYTH SATELLITE ACADEMY",7,414,401,359,1174,NA,NA,NA,NA,NA,1,"M458",23,23.4,22.6,72.8,4,8.9,2.2,34.4,59.4,3.6,43.3,56.7,224,NA,NA,NA,NA
"01M509","MARTA VALLE HIGH SCHOOL",44,390,433,384,1207,NA,NA,NA,NA,NA,1,"M509",23.5714285714286,27.3571428571429,20,80.7,11.2,25.9,9.3,31.6,56.9,1.6,46.3,53.7,367,56,6,40.7205690790005,-73.9856726909996
"01M515","LOWER EAST SIDE PREPARATORY HIGH SCHOOL",112,332,557,316,1205,24,26,24,1.08333333333333,92.3076923076923,1,"M515",22.8764705882353,28.5882352941176,15.7647058823529,NA,NA,NA,NA,NA,NA,NA,NA,NA,NA,54.4,18.1,NA,NA
"01M539","NEW EXPLORATIONS INTO SCIENCE, TECHNOLOGY AND MATH HIGH SCHOOL",159,522,574,525,1621,255,377,191,1.47843137254902,50.6631299734748,1,"M539",25.5105263157895,31.2105263157895,19.4736842105263,23,0.2,2.7,27.8,11.7,14.2,44.9,49.2,50.8,1613,100,0,40.7187254510005,-73.9794263859997
"01M650","CASCADES HIGH SCHOOL",18,417,418,411,1246,NA,NA,NA,NA,NA,1,"M650",21.78125,24.75,18.6875,69.8,3.2,6.9,0.5,45.4,49.5,4.1,39.9,60.1,218,55.1,6.7,NA,NA
"01M696","BARD HIGH SCHOOL EARLY COLLEGE",130,624,604,628,1856,NA,NA,NA,NA,NA,1,"M696",20.975,24.25,17.1666666666667,18,0.2,0.8,15.1,15.1,18.2,49.8,31.3,68.7,617,96.4,0.7,40.7189616170004,-73.9760660209997
"02M047","47 THE AMERICAN SIGN LANGUAGE AND ENGLISH SECONDARY SCHOOL",16,395,400,387,1182,NA,NA,NA,NA,NA,2,"M047",16.0727272727273,17.0909090909091,15.0909090909091,66.9,8,32.2,1.7,32.2,59.2,6.3,42.5,57.5,174,76,4,40.7385990870005,-73.9825119109997
"02M288","FOOD AND FINANCE HIGH SCHOOL",62,409,393,392,1194,NA,NA,NA,NA,NA,2,"M288",22.6833333333333,26.1666666666667,19.3333333333333,68.4,2.1,18.5,3,44.1,47.6,4.8,45,55,433,89.2,2.9,40.7650267080005,-73.9925165779997
"02M294","ESSEX STREET ACADEMY",53,394,384,378,1156,NA,NA,NA,NA,NA,2,"M294",14.9,17.8571428571429,12.2857142857143,60.8,3.8,20.4,4.1,27.7,60.6,7.6,53.4,46.6,343,71.9,10.1,40.7168672240004,-73.9895319429996
"02M296","HIGH SCHOOL OF HOSPITALITY MANAGEMENT",58,374,375,362,1111,NA,NA,NA,NA,NA,2,"M296",22.9642857142857,27.5714285714286,16.2142857142857,72.4,9.5,14.8,5.3,26.5,66.1,2.1,32.2,67.8,419,77.3,6.7,40.7650267080005,-73.9925165779997
"02M298","PACE HIGH SCHOOL",85,423,438,432,1293,21,21,NA,1,NA,2,"M298",21.3125,25.0625,18,56.7,2.2,13.8,10.1,32.4,42,3.9,43.7,56.3,414,84.8,4.3,40.7164123930005,-73.9926758439997
"02M300","URBAN ASSEMBLY SCHOOL OF DESIGN AND CONSTRUCTION, THE",48,404,449,416,1269,99,117,10,1.18181818181818,8.54700854700855,2,"M300",22.6416666666667,27.5833333333333,18.1666666666667,75.3,10.9,20,6,29.2,59.2,4.9,74.9,25.1,431,61.3,8.8,40.7650267080005,-73.9925165779997
"02M303","FACING HISTORY SCHOOL, THE",76,353,358,340,1051,42,44,NA,1.04761904761905,NA,2,"M303",21.85,26.1666666666667,18.5,75.6,20.8,21.7,0.7,23.5,73.2,2.4,50.6,49.4,451,47.9,19.7,40.7650267080005,-73.9925165779997
"02M305","URBAN ASSEMBLY ACADEMY OF GOVERNMENT AND LAW, THE",50,375,388,385,1148,25,37,15,1.48,40.5405405405405,2,"M305",20.8,24,17.625,68.3,6.1,17,3.8,41.7,50.6,3.5,43.9,56.1,312,75.4,16.4,40.7168672240004,-73.9895319429996
"02M308","LOWER MANHATTAN ARTS ACADEMY",40,403,392,405,1200,NA,NA,NA,NA,NA,2,"M308",23.25,26,20.75,62.2,3.9,24.7,9.5,30.7,55.7,3.6,39.9,60.1,336,67.6,8.8,40.7168672240004,-73.9895319429996
"02M313","JAMES BALDWIN SCHOOL, THE: A SCHOOL FOR EXPEDITIONARY LEARNING",69,408,390,390,1188,NA,NA,NA,NA,NA,2,"M313",21.9214285714286,24.0714285714286,19.7857142857143,51,4.8,12.9,4,34.3,54.4,6.5,52.4,47.6,248,51.9,15.2,NA,NA
"02M316","URBAN ASSEMBLY SCHOOL OF BUSINESS FOR YOUNG WOMEN, THE",42,373,370,384,1127,NA,NA,NA,NA,NA,2,"M316",26.3166666666667,27.75,23.5,74.9,2.6,15.6,3.4,46.8,48.4,1.3,0,100,378,73.6,5.6,40.7052349390005,-74.0133150399997
"02M374","GRAMERCY ARTS HIGH SCHOOL",60,391,391,394,1176,NA,NA,NA,NA,NA,2,"M374",27.2071428571429,30.5714285714286,22.8571428571429,59,3,12.3,2.8,45.3,45.1,6.7,26.3,73.7,495,73.1,7.5,40.7355194630005,-73.9876042489997
"02M376","NYC ISCHOOL",92,473,483,479,1435,NA,NA,NA,NA,NA,2,"M376",37.0230769230769,50.6923076923077,25.8461538461538,34.6,0.5,10.9,11.5,20.6,43,24,48.7,51.3,433,NA,NA,40.7243528740005,-74.0047592919997
"02M392","MANHATTAN BUSINESS ACADEMY",NA,NA,NA,NA,NA,NA,NA,NA,NA,NA,2,"M392",25.2571428571429,27,23.4285714285714,64,9.9,13.9,6.6,29.5,58.7,4.8,59,41,332,NA,NA,40.7428881010005,-74.0021273809996
"02M393","BUSINESS OF SPORTS SCHOOL",NA,NA,NA,NA,NA,NA,NA,NA,NA,NA,2,"M393",22.1285714285714,26.4285714285714,16.1428571428571,58.7,7.6,21.4,1.6,35.5,57.2,4.3,72.4,27.6,304,NA,NA,40.7633617320005,-73.9905090909997
"02M394","EMMA LAZARUS HIGH SCHOOL",79,319,512,357,1188,NA,NA,NA,NA,NA,2,"M394",24.7,31.7,16.5,97,82.8,0,62.4,7.2,26.4,4,51.2,48.8,250,NA,NA,NA,NA
"02M399","THE HIGH SCHOOL FOR LANGUAGE AND DIPLOMACY",NA,NA,NA,NA,NA,NA,NA,NA,NA,NA,2,"M399",17.8545454545455,24,14.0909090909091,80.8,28.3,16.8,44.3,15.6,32.8,5.3,48,52,244,NA,NA,40.7355194630005,-73.9876042489997
"02M400","HIGH SCHOOL FOR ENVIRONMENTAL STUDIES",263,465,493,461,1419,213,298,152,1.39906103286385,51.006711409396,2,"M400",30.58,34.6,21.8,56.4,7.1,14.4,16.7,14.8,57.2,11.1,50.4,49.6,1394,74.4,6.3,40.7677624390005,-73.9875112139997
"02M407","INSTITUTE FOR COLLABORATIVE EDUCATION",54,492,465,467,1424,NA,NA,NA,NA,NA,NA,NA,NA,NA,NA,17.9,0.4,8.8,6.3,10.2,17.6,54.6,55.2,44.8,489,76.4,3.6,40.7324853780005,-73.9830533879996
"02M408","PROFESSIONAL PERFORMING ARTS HIGH SCHOOL",94,509,490,523,1522,20,20,15,1,75,2,"M408",28.9529411764706,31.5882352941176,25.1176470588235,23.5,2,3.2,7,19.1,23.7,41.8,25.3,74.7,502,92.5,0,40.7614326990005,-73.9880236979997
"02M411","BARUCH COLLEGE CAMPUS HIGH SCHOOL",104,496,563,518,1577,78,115,88,1.47435897435897,76.5217391304348,2,"M411",26.5733333333333,31.5333333333333,19.4,54.6,1.6,2.3,60.6,5.8,14.6,18.8,44,56,432,98.1,0,40.7440472480005,-73.9914792989997
"02M412","N.Y.C. LAB SCHOOL FOR COLLABORATIVE STUDIES",114,537,590,550,1677,114,140,97,1.2280701754386,69.2857142857143,2,"M412",32.5666666666667,34.4666666666667,30.4666666666667,21.6,1.6,15,29.4,8.5,14,45.9,47,53,579,91.1,1.6,40.7421007130005,-74.0020737969996
"02M413","SCHOOL OF THE FUTURE HIGH SCHOOL",66,517,533,515,1565,11,11,NA,1,NA,NA,NA,NA,NA,NA,31,2.1,14.6,16,12.3,26,38,50.8,49.2,673,64.2,2.1,40.7389488860005,-73.9854051719997
"02M414","N.Y.C. MUSEUM SCHOOL",103,468,492,459,1419,NA,NA,NA,NA,NA,2,"M414",27.74375,31,23.9375,51.6,0.5,9.4,33,11.7,39.9,15.4,42.4,57.6,436,94.3,1.9,40.7421007130005,-74.0020737969996
"02M416","ELEANOR ROOSEVELT HIGH SCHOOL",127,572,594,592,1758,155,235,169,1.51612903225806,71.9148936170213,2,"M416",27.4333333333333,30.6666666666667,23.5555555555556,15.8,0.2,1.2,17.2,5.5,11.6,63.7,32.5,67.5,507,100,0,40.7701164710004,-73.9533791009996
"02M418","MILLENNIUM HIGH SCHOOL",144,528,553,533,1614,86,95,67,1.1046511627907,70.5263157894737,2,"M418",29.2117647058824,31.3529411764706,26.4117647058824,32.7,0.2,9.1,30,8.8,21.7,35.9,38.2,61.8,626,96.7,0,40.7049203660005,-74.0115140229997
"02M419","LANDMARK HIGH SCHOOL",62,390,399,381,1170,NA,NA,NA,NA,NA,2,"M419",23.2285714285714,25.7142857142857,21.2142857142857,83.1,15.7,18.8,5.2,18.1,74.8,1.9,48.5,51.5,421,61.7,13.8,40.7428881010005,-74.0021273809996
"02M420","HIGH SCHOOL FOR HEALTH PROFESSIONS AND HUMAN SERVICES",336,429,449,428,1306,204,248,75,1.2156862745098,30.241935483871,2,"M420",32.1875,34.0625,28.1875,68,4,10.9,20.5,24.4,49.7,5.3,29.4,70.6,1768,82.1,0.6,40.7324853780005,-73.9830533879996
"02M425","LEADERSHIP AND PUBLIC SERVICE HIGH SCHOOL",84,416,426,391,1233,70,84,32,1.2,38.0952380952381,2,"M425",27.9733333333333,31.8666666666667,22.6666666666667,74.2,5.4,18.6,8.1,30.5,54.2,6.6,46.1,53.9,607,54.2,16,40.7091465390005,-74.0120766269996
"02M427","MANHATTAN ACADEMY FOR ARTS & LANGUAGE",NA,NA,NA,NA,NA,NA,NA,NA,NA,NA,2,"M427",23.02,27,16.6,97.5,86.9,6.9,6.3,8,84.6,1.1,54.9,45.1,175,NA,NA,40.7461063750005,-73.9810096669996
"02M429","LEGACY SCHOOL FOR INTEGRATED STUDIES",29,356,357,349,1062,22,26,NA,1.18181818181818,NA,2,"M429",19.9230769230769,24.6923076923077,15.6153846153846,93.9,8.2,22.4,1.4,45.2,51.4,1.7,49,51,294,47.9,6.8,NA,NA
"02M437","HUDSON HIGH SCHOOL OF LEARNING TECHNOLOGIES",NA,NA,NA,NA,NA,NA,NA,NA,NA,NA,2,"M437",28,29,27,61.5,8.8,16.4,5.8,23.5,62.4,6.6,60.6,39.4,226,NA,NA,40.7428881010005,-74.0021273809996
"02M438","INTERNATIONAL HIGH SCHOOL AT UNION SQUARE",NA,NA,NA,NA,NA,NA,NA,NA,NA,NA,2,"M438",24.5,26,23,82.8,94.9,0.6,40.3,12.5,43.2,3.4,61.4,38.6,176,NA,NA,40.7355194630005,-73.9876042489997
"02M439","MANHATTAN VILLAGE ACADEMY",95,441,473,458,1372,42,69,29,1.64285714285714,42.0289855072464,2,"M439",21.35625,23.5,19.3125,60.3,3.7,8.2,6.3,16.8,71.8,4.9,38.5,61.5,429,98.2,0,40.7414946990005,-73.9914450529997
"02M440","BAYARD RUSTIN EDUCATIONAL COMPLEX",59,378,365,368,1111,6,6,NA,1,NA,2,"M440",25.925,30.8333333333333,19.75,75.5,26,13.5,6.3,27.9,62.5,2.4,63.9,36.1,208,38.1,18.6,NA,NA
"02M449","VANGUARD HIGH SCHOOL",72,395,416,388,1199,NA,NA,NA,NA,NA,2,"M449",19.2166666666667,21.1666666666667,16.6666666666667,69.5,6.1,17.3,9.9,25.7,59,4.5,46.2,53.8,444,44.9,3.4,40.7654454020005,-73.9602137859997
"02M459","MANHATTAN INTERNATIONAL HIGH SCHOOL",49,376,460,391,1227,12,12,6,1,50,2,"M459",20.3117647058824,22.4705882352941,17.1764705882353,80.7,77.5,0.3,33.5,14.8,36.9,14.5,44.3,55.7,325,55.1,7.2,40.7654454020005,-73.9602137859997
"02M460","WASHINGTON IRVING HIGH SCHOOL",151,373,387,360,1120,69,83,21,1.20289855072464,25.3012048192771,2,"M460",24.1705882352941,31.1764705882353,16.0588235294118,66,18.6,17.2,4.8,34.3,58.2,2.3,47.5,52.5,1032,51.9,26.6,NA,NA
"02M473","WASHINGTON IRVING YABC",NA,NA,NA,NA,NA,NA,NA,NA,NA,NA,NA,NA,NA,NA,NA,NA,NA,NA,NA,NA,NA,NA,NA,NA,NA,NA,NA,NA,NA
"02M475","STUYVESANT HIGH SCHOOL",832,679,735,682,2096,1510,2819,2648,1.86688741721854,93.934019155729,2,"M475",31.1157894736842,33.8421052631579,24.1052631578947,30.3,0,0.4,72.1,1.2,2.4,23.7,59.3,40.7,3297,98.3,0.4,40.7177464150005,-74.0140490429997
"02M489","HIGH SCHOOL OF ECONOMICS AND FINANCE",167,443,489,442,1374,101,176,78,1.74257425742574,44.3181818181818,2,"M489",27.3333333333333,32.2222222222222,20.1666666666667,60.8,6.3,11.9,24.8,22.5,43.5,8.8,54.5,45.5,809,76.8,7.3,40.7092196250005,-74.0120259149996
"02M500","UNITY CENTER FOR URBAN TECHNOLOGIES",25,370,349,351,1070,NA,NA,NA,NA,NA,2,"M500",25.0428571428571,30.7142857142857,19.2857142857143,83.5,15.6,32.9,3.8,35,55.3,2.5,62.4,37.6,237,73.6,11.3,40.7461063750005,-73.9810096669996
"02M519","TALENT UNLIMITED HIGH SCHOOL",81,469,472,475,1416,30,34,21,1.13333333333333,61.7647058823529,2,"M519",25.85,29.4375,21.0625,45.5,0.2,3.5,4.5,36,39.3,19.8,21.4,78.6,491,92.6,0,40.7654454020005,-73.9602137859997
"02M520","MURRY BERGTRAUM HIGH SCHOOL FOR BUSINESS CAREERS",264,407,440,393,1240,118,157,76,1.33050847457627,48.4076433121019,2,"M520",26.9705882352941,33.3529411764706,16.7647058823529,72.7,10.2,14.1,10.5,39.9,46.6,2.3,49.1,50.9,2073,56.4,11.6,40.7106794710004,-74.0008070209997
"02M529","JACQUELINE KENNEDY ONASSIS HIGH SCHOOL",131,414,425,400,1239,80,118,29,1.475,24.5762711864407,2,"M529",26.05,30.4444444444444,19.8333333333333,73,9.8,13.7,5.1,22.7,69.9,1.8,40.6,59.4,724,64.9,10.1,40.7577573860005,-73.9831877929997
"02M531","REPERTORY COMPANY HIGH SCHOOL FOR THEATRE ARTS",42,429,404,420,1253,NA,NA,NA,NA,NA,2,"M531",23.9,25.5,21.9166666666667,65.3,0.5,5.1,1.4,47.9,42.4,7.4,21.2,78.8,217,85.7,8.2,40.7559425820005,-73.9845677019997
"02M542","MANHATTAN BRIDGES HIGH SCHOOL",66,336,378,344,1058,67,102,59,1.52238805970149,57.843137254902,2,"M542",23.475,26.9375,19.1875,83.5,72.6,1.7,0.2,0,99.8,0,51.4,48.6,541,69.4,13.5,40.7650267080005,-73.9925165779997
"02M543","NEW DESIGN HIGH SCHOOL",73,391,395,382,1168,NA,NA,NA,NA,NA,2,"M543",22.6384615384615,24.6923076923077,20.3076923076923,66.1,5.4,17.5,3.8,30.3,62.2,2.6,38.3,61.7,423,67.3,7.9,40.7168672240004,-73.9895319429996
"02M544","INDEPENDENCE HIGH SCHOOL",14,389,371,335,1095,NA,NA,NA,NA,NA,2,"M544",19.45,24.2142857142857,14.2857142857143,NA,NA,NA,NA,NA,NA,NA,NA,NA,NA,17.2,13.1,NA,NA
"02M545","HIGH SCHOOL FOR DUAL LANGUAGE AND ASIAN STUDIES",78,412,581,431,1424,61,96,89,1.57377049180328,92.7083333333333,2,"M545",21.8176470588235,26.2941176470588,16.5882352941176,82.6,38.2,2.3,89.5,3.4,4,2.3,51.3,48.7,353,92.6,0,40.7168672240004,-73.9895319429996
"02M550","LIBERTY HIGH SCHOOL ACADEMY FOR NEWCOMERS",26,368,436,352,1156,NA,NA,NA,NA,NA,2,"M550",18.6076923076923,21.6153846153846,15.1538461538462,79.5,90.2,2,25.7,19.9,42.1,11.8,61,39,397,49.5,19.6,NA,NA
"02M551","THE URBAN ASSEMBLY NEW YORK HARBOR SCHOOL",77,405,423,384,1212,7,7,NA,1,NA,2,"M551",24.0133333333333,27.3333333333333,19.7333333333333,73.5,4.2,17.9,2.3,37.4,49.3,10.2,60.9,39.1,430,80.5,18.2,40.6907876290005,-74.0197573259996
"02M560","HIGH SCHOOL M560 s CITY AS SCHOOL",56,498,440,477,1415,NA,NA,NA,NA,NA,NA,NA,NA,NA,NA,NA,NA,NA,NA,NA,NA,NA,NA,NA,NA,45.1,0.9,NA,NA
"02M565","URBAN ACADEMY LABORATORY HIGH SCHOOL",30,527,508,512,1547,NA,NA,NA,NA,NA,NA,NA,NA,NA,NA,32.1,1.3,0,5.1,33.8,38.2,20.4,40.8,59.2,157,41.3,2.2,NA,NA
"02M570","SATELLITE ACADEMY HIGH SCHOOL",33,350,337,345,1032,NA,NA,NA,NA,NA,NA,NA,NA,NA,NA,72.8,6.5,14.1,1.6,35.1,59.7,2.8,38.7,61.3,248,12.7,10.8,NA,NA
"02M575","MANHATTAN COMPREHENSIVE NIGHT AND DAY HIGH SCHOOL",121,345,517,343,1205,58,100,61,1.72413793103448,61,2,"M575",22.4428571428571,29.5714285714286,17,NA,NA,NA,NA,NA,NA,NA,NA,NA,NA,45.4,16.9,NA,NA
"02M580","RICHARD R. GREEN HIGH SCHOOL OF TEACHING",84,408,384,403,1195,67,117,40,1.74626865671642,34.1880341880342,2,"M580",26.0882352941176,30,21.4117647058824,67,6.4,21.8,2.3,35.1,59.3,2.3,32.6,67.4,610,64.9,11.2,40.7052349390005,-74.0133150399997
"02M586","HARVEY MILK HIGH SCHOOL",9,458,416,429,1303,NA,NA,NA,NA,NA,2,"M586",13.6222222222222,13.7777777777778,13.5555555555556,75.7,1.5,22.1,5.9,38.2,39.7,16.2,47.1,52.9,68,40,23.3,NA,NA
"02M600","THE HIGH SCHOOL OF FASHION INDUSTRIES",335,423,423,411,1257,70,87,26,1.24285714285714,29.8850574712644,2,"M600",30.6083333333333,32.75,26.9166666666667,68.3,2.8,11.5,3.8,39.1,52.3,4.1,7.3,92.7,1599,87.7,2.4,40.7451115710005,-73.9959064199996
"02M605","HUMANITIES PREPARATORY ACADEMY",36,426,403,426,1255,NA,NA,NA,NA,NA,2,"M605",23.8,26.2857142857143,20.7142857142857,54,1,6.8,7.3,21.9,57.8,11.5,42.7,57.3,192,81.3,2.1,40.7428881010005,-74.0021273809996
"02M615","CHELSEA CAREER AND TECHNICAL EDUCATION HIGH SCHOOL",83,399,418,390,1207,52,97,13,1.86538461538462,13.4020618556701,2,"M615",25.2,28.5555555555556,22.2222222222222,69.8,6.2,15.7,7.1,29.6,60.5,1.5,65,35,466,48,24.9,40.7243528740005,-74.0047592919997
"02M620","NORMAN THOMAS HIGH SCHOOL",154,370,379,359,1108,34,34,14,1,41.1764705882353,2,"M620",24.2,32.8571428571429,12.4285714285714,81.1,19.3,15.5,1.6,25.6,70.6,2,52,48,1127,47.8,22.6,NA,NA
"02M625","HIGH SCHOOL OF GRAPHIC COMMUNICATION ARTS",191,395,382,376,1153,79,85,9,1.07594936708861,10.5882352941176,2,"M625",27.3266666666667,36.2,17.5333333333333,72.7,9.1,17.2,3.1,30.3,63.8,2.6,46.5,53.5,1433,49.6,25.1,NA,NA
"02M630","ART AND DESIGN HIGH SCHOOL",270,444,441,430,1315,84,100,33,1.19047619047619,33,2,"M630",28.8875,33.6875,20.5625,53.3,1.6,11.1,9,26.8,51,12.6,46.7,53.3,1344,67.5,6.9,40.7654015410005,-73.9817682459997
"02M655","LIFE SCIENCES SECONDARY SCHOOL",61,409,424,403,1236,50,90,10,1.8,11.1111111111111,2,"M655",23.9210526315789,30.5263157894737,16.6842105263158,70.3,7.9,19.7,3.3,28.6,64.3,2.4,51.6,48.4,717,79.7,5.9,40.7836442600005,-73.9457417769996
"03M283","MANHATTAN THEATRE LAB HIGH SCHOOL",27,406,379,408,1193,NA,NA,NA,NA,NA,3,"M283",26.5272727272727,32.0909090909091,21.2727272727273,59.6,8.6,10.5,1.7,46,49.4,2.2,31.8,68.2,409,55.4,8.1,NA,NA
"03M299","HIGH SCHOOL FOR ARTS, IMAGINATION AND INQUIRY",49,374,384,374,1132,NA,NA,NA,NA,NA,3,"M299",24.1375,28.3125,19.3125,66.4,14.4,19.6,1,37.3,58.9,1.4,55.7,44.3,418,61.8,7.9,40.7742964110005,-73.9848227009996
"03M307","URBAN ASSEMBLY SCHOOL FOR MEDIA STUDIES, THE",41,384,390,370,1144,NA,NA,NA,NA,NA,3,"M307",19.8076923076923,21.4615384615385,18.5384615384615,68.8,12.8,15.3,2.2,37.4,56,3,57.9,42.1,366,60,19,40.7742964110005,-73.9848227009996
"03M402","THE URBAN ASSEMBLY SCHOOL FOR GREEN CAREERS",NA,NA,NA,NA,NA,NA,NA,NA,NA,NA,3,"M402",10,10,10,73.2,25.1,21.6,1.8,19.8,76,1.8,56.9,43.1,283,NA,NA,40.7857431570005,-73.9744152279997
"03M403","THE GLOBAL LEARNING COLLABORATIVE",NA,NA,NA,NA,NA,NA,NA,NA,NA,NA,3,"M403",24.98,30,20,68.4,19.3,19.3,3.6,27.7,62.6,5.9,51.4,48.6,358,NA,NA,40.7857431570005,-73.9744152279997
"03M404","INNOVATION DIPLOMA PLUS",12,416,403,381,1200,NA,NA,NA,NA,NA,3,"M404",17.2230769230769,20.2307692307692,14.4615384615385,50.4,3.5,10.1,48.7,33.2,16.6,1.5,47.7,52.3,199,28.2,5.1,NA,NA
"03M415","WADLEIGH SECONDARY SCHOOL FOR THE PERFORMING & VISUAL ARTS",32,371,368,370,1109,65,73,NA,1.12307692307692,NA,3,"M415",23.6,28.0769230769231,18.3076923076923,76.6,7.4,18.8,0.4,59.9,38.8,0.8,38.4,61.6,516,55.9,1.6,40.8021745810005,-73.9540088279996
"03M417","FRANK MCCOURT HIGH SCHOOL",NA,NA,NA,NA,NA,NA,NA,NA,NA,NA,3,"M417",25,27,24,24,0.9,17.4,6.8,18.3,37,37,46.6,53.4,219,NA,NA,40.7857431570005,-73.9744152279997
"03M470","LOUIS D. BRANDEIS HIGH SCHOOL",131,370,390,358,1118,48,70,6,1.45833333333333,8.57142857142857,3,"M470",21.8684210526316,27.2105263157895,15.4210526315789,68.6,27.8,10.7,2.1,29.6,67.4,1,50.5,49.5,291,35.5,23,NA,NA
"03M479","BEACON HIGH SCHOOL",261,577,575,592,1744,166,197,140,1.18674698795181,71.0659898477157,3,"M479",30.7833333333333,33.6666666666667,26.0833333333333,18.4,0.2,3.7,8.9,14.6,22.8,49.8,39,61,1162,96.3,0,40.7721581190005,-73.9877965349996
"03M485","FIORELLO H. LAGUARDIA HIGH SCHOOL OF MUSIC & ART AND PERFORMING ARTS",531,566,564,577,1707,691,1236,790,1.78871201157742,63.915857605178,3,"M485",31.30625,34.25,25.125,21.7,0.2,1,19.6,12.9,16.6,49.2,26.4,73.6,2605,97.1,0.9,40.7736705070005,-73.9852685579996
"03M492","HIGH SCHOOL FOR LAW, ADVOCACY AND COMMUNITY JUSTICE",66,396,398,402,1196,NA,NA,NA,NA,NA,3,"M492",23.4166666666667,28.7777777777778,18.5555555555556,79.9,10.5,15.5,1.3,46.2,48.1,1.8,40.1,59.9,541,75.7,9.3,40.7742964110005,-73.9848227009996
"03M494","HIGH SCHOOL OF ARTS AND TECHNOLOGY",75,433,433,411,1277,38,38,6,1,15.7894736842105,3,"M494",28.0714285714286,31.9285714285714,21.8571428571429,79.8,10.4,17.2,5,34.8,57.2,2.3,67.7,32.3,603,62.8,6.6,40.7742964110005,-73.9848227009996
"03M505","EDWARD A. REYNOLDS WEST SIDE HIGH SCHOOL",35,401,369,351,1121,NA,NA,NA,NA,NA,3,"M505",21.125,27.25,16.4166666666667,70.5,7.8,23,0.5,34.6,64.4,0.5,44.3,55.7,564,27.5,6.5,NA,NA
"03M541","MANHATTAN / HUNTER SCIENCE HIGH SCHOOL",111,473,506,467,1446,NA,NA,NA,NA,NA,3,"M541",21.6,26.4285714285714,16.9285714285714,55.2,1.3,3.8,25.6,21.4,41.5,10.2,41.1,58.9,453,93.3,1.1,40.7742964110005,-73.9848227009996
"03M577","YOUNG ADULT BOROUGH CENTER AT LOUIS D. BRANDEIS HS",NA,NA,NA,NA,NA,NA,NA,NA,NA,NA,NA,NA,NA,NA,NA,NA,NA,NA,NA,NA,NA,NA,NA,NA,NA,NA,NA,NA,NA
"03M860","FREDERICK DOUGLASS ACADEMY II SECONDARY SCHOOL",43,356,379,361,1096,11,11,NA,1,NA,3,"M860",21.8928571428571,25.5714285714286,18.1428571428571,64.2,5.8,20.8,0.7,77.7,18.9,1.5,54.2,45.8,413,74.1,13,40.8021745810005,-73.9540088279996
"04M409","COALITION SCHOOL FOR SOCIAL CHANGE",48,354,357,373,1084,18,18,NA,1,NA,4,"M409",21.32,26.2,16.3333333333333,71.8,9.7,24.4,0.9,39.3,58.7,0.9,44.4,55.6,349,65.8,13.2,40.7988651820005,-73.9333655969996
"04M435","MANHATTAN CENTER FOR SCIENCE AND MATHEMATICS",375,461,514,455,1430,328,426,261,1.29878048780488,61.2676056338028,4,"M435",31.0666666666667,34.1111111111111,24,71.6,2.7,5.8,20.1,19.7,57.4,2.2,46.4,53.6,1650,87.7,1.3,40.7937417060005,-73.9340841419997
"04M495","PARK EAST HIGH SCHOOL",51,373,379,376,1128,NA,NA,NA,NA,NA,4,"M495",19.04,22.6,15.0666666666667,76.8,4.3,10.6,4.9,33.2,59.6,0.3,42.1,57.9,349,57.6,10.9,40.7905626000005,-73.9444544079997
"04M555","CENTRAL PARK EAST HIGH SCHOOL",73,405,421,395,1221,NA,NA,NA,NA,NA,4,"M555",25.1642857142857,28.2857142857143,20.7142857142857,70.4,4,13.5,6.5,26.7,64.5,1.6,32.1,67.9,445,66.7,11.1,40.7936788820005,-73.9494164949997
"04M610","YOUNG WOMEN'S LEADERSHIP SCHOOL",70,432,446,448,1326,41,55,29,1.34146341463415,52.7272727272727,4,"M610",25.7117647058824,27.9411764705882,23,67.3,2.2,6.7,5.1,31.2,60.1,1.6,0,100,449,100,0,40.7927069560005,-73.9472996619997
"04M635","ACADEMY OF ENVIRONMENTAL SCIENCE SECONDARY HIGH SCHOOL",48,369,369,357,1095,NA,NA,NA,NA,NA,4,"M635",26.1733333333333,29.2666666666667,23.1333333333333,62.7,13.5,18.8,4.2,27.6,65.6,2.1,62,38,192,41.3,20,NA,NA
"04M680","HERITAGE SCHOOL, THE",31,358,351,345,1054,NA,NA,NA,NA,NA,4,"M680",20.6928571428571,25.1428571428571,16.0714285714286,71.8,6.8,24.8,0.3,28.9,69.4,1,48.6,51.4,294,56,9.3,40.7918796180005,-73.9465863999997
"05M285","HARLEM RENAISSANCE HIGH SCHOOL",29,357,318,333,1008,NA,NA,NA,NA,NA,5,"M285",17.2083333333333,19.3333333333333,15.5833333333333,67.6,9.5,10.8,0.5,62.2,36.9,0.5,39.2,60.8,222,12.3,22.2,NA,NA
"05M304","MOTT HALL HIGH SCHOOL",54,413,399,398,1210,11,11,NA,1,NA,5,"M304",25.64,31,19.8666666666667,78.5,8.7,15.5,0.9,35,63.8,0.2,53.5,46.5,426,69.8,7.3,40.8173610460005,-73.9477084209997
"05M362","COLUMBIA SECONDARY SCHOOL FOR MATH, SCIENCE, AND ENGINEERING",NA,NA,NA,NA,NA,NA,NA,NA,NA,NA,5,"M362",25.3666666666667,25.8333333333333,24.5,46.3,0.6,0.4,11.6,20,48.5,18.4,49.6,50.4,474,NA,NA,40.8109178530005,-73.9569273869997
"05M367","ACADEMY FOR SOCIAL ACTION: A COLLEGE BOARD SCHOOL",33,354,366,342,1062,17,17,NA,1,NA,5,"M367",23.4307692307692,26.6923076923077,20,67,9.9,21.6,0.5,61.4,38.1,0,48.7,51.3,425,NA,NA,40.8152303650004,-73.9552012059996
"05M369","URBAN ASSEMBLY SCHOOL FOR THE PERFORMING ARTS",56,360,353,364,1077,NA,NA,NA,NA,NA,5,"M369",24.2384615384615,27.3846153846154,21.3076923076923,77.7,6.1,16.6,0.5,59.1,38.2,0.8,25.4,74.6,374,69.4,16.1,40.8152303650004,-73.9552012059996
"05M469","CHOIR ACADEMY OF HARLEM",20,354,360,385,1099,6,6,NA,1,NA,5,"M469",22.55,26.375,18.5625,81.9,2,13.3,0.3,76.1,22.5,0.6,39.8,60.2,347,56.4,10.3,NA,NA
"05M499","FREDERICK DOUGLASS ACADEMY",214,458,474,442,1374,163,226,159,1.38650306748466,70.353982300885,5,"M499",26.68125,31.625,19.6875,57.6,2.4,8.9,1.2,74.4,22.8,1.3,52.2,47.8,1556,82.6,3.5,40.8243083850004,-73.9369796129997
"05M670","THURGOOD MARSHALL ACADEMY FOR LEARNING AND SOCIAL CHANGE",66,396,402,404,1202,37,38,NA,1.02702702702703,NA,5,"M670",22.9933333333333,26.0666666666667,20.3333333333333,65.1,1.4,10,0.2,78.1,20.9,0.2,44.1,55.9,580,68.4,10.5,40.8153648290005,-73.9438967099997
"05M685","BREAD & ROSES INTEGRATED ARTS HIGH SCHOOL",61,369,361,355,1085,NA,NA,NA,NA,NA,5,"M685",22.8133333333333,27.0666666666667,18,71.8,17.6,21,0.4,53.2,45.4,0.6,48.9,51.1,524,37.2,18.2,NA,NA
"05M692","HIGH SCHOOL FOR MATHEMATICS, SCIENCE AND ENGINEERING AT CITY COLLEGE",101,605,654,588,1847,114,124,71,1.08771929824561,57.258064516129,5,"M692",21.68125,25.625,17.4375,18.5,0,0,36.2,15,21.2,26.1,65.8,34.2,406,95.3,0,40.8211231120005,-73.9488452439996
"06M293","CITY COLLEGE ACADEMY OF THE ARTS",60,408,446,416,1270,NA,NA,NA,NA,NA,6,"M293",23.6357142857143,27.5714285714286,18.7857142857143,71.6,6.1,13.1,0.7,6,92,1.2,39.6,60.4,586,NA,NA,40.8611133190005,-73.9304521489997
"06M346","COMMUNITY HEALTH ACADEMY OF THE HEIGHTS",55,362,376,367,1105,NA,NA,NA,NA,NA,6,"M346",27.0692307692308,31.3846153846154,22.7692307692308,78.8,30,17.3,0.2,5.2,93.8,0.8,52.3,47.7,520,NA,NA,40.8335552190005,-73.9418042119996
"06M348","WASHINGTON HEIGHTS EXPEDITIONARY LEARNING SCHOOL",70,380,395,399,1174,NA,NA,NA,NA,NA,6,"M348",28.06,31.5,23.7,87.5,19.6,18.1,0,2.3,96.7,0.3,55.8,44.2,602,NA,NA,40.8488787880005,-73.9308065169997
"06M423","HIGH SCHOOL FOR EXCELLENCE AND INNOVATION",NA,NA,NA,NA,NA,NA,NA,NA,NA,NA,6,"M423",17,18,16,99.2,19.7,34.3,0,25.8,72.5,0,52.8,47.2,178,NA,NA,40.8660455490005,-73.9248566419997
"06M457","GEORGE WASHINGTON YABC",7,394,357,346,1097,NA,NA,NA,NA,NA,NA,NA,NA,NA,NA,NA,NA,NA,NA,NA,NA,NA,NA,NA,NA,NA,NA,NA,NA
"06M462","HIGH SCHOOL FOR INTERNATIONAL BUSINESS AND FINANCE",76,365,384,378,1127,108,135,43,1.25,31.8518518518519,6,"M462",26.0375,30.5,20.5625,89.3,43,13.7,0.5,5.2,91.4,1.4,63.8,36.2,630,74.1,9.2,40.8559383070005,-73.9270296339997
"06M463","HIGH SCHOOL FOR MEDIA AND COMMUNICATIONS",63,369,380,349,1098,37,64,NA,1.72972972972973,NA,6,"M463",23.36875,28.6875,17.5625,83.8,26.9,17,1,10.7,87.1,0.5,63.5,36.5,572,62.7,12.4,40.8559383070005,-73.9270296339997
"06M467","HIGH SCHOOL FOR LAW AND PUBLIC SERVICE",94,363,378,361,1102,141,212,82,1.50354609929078,38.6792452830189,6,"M467",24.9666666666667,31,19.0555555555556,72.5,32,16.7,1,13,84.4,1.3,58.6,41.4,694,71.3,9.4,40.8559383070005,-73.9270296339997
"06M468","HIGH SCHOOL FOR HEALTH CAREERS AND SCIENCES",24,400,422,402,1224,32,38,17,1.1875,44.7368421052632,6,"M468",27.63125,31.3125,22.4375,90.7,31.2,13.8,0.7,13.7,83.8,1,52.7,47.3,679,55.7,20.9,40.8559383070005,-73.9270296339997
"06M540","A. PHILIP RANDOLPH CAMPUS HIGH SCHOOL",228,430,456,423,1309,165,222,72,1.34545454545455,32.4324324324324,6,"M540",30.0421052631579,32.6842105263158,23.8421052631579,76.3,2.3,5.5,4,32.8,62.3,0.7,49.9,50.1,1285,71.2,3,40.8183212690005,-73.9506138279996
"06M552","GREGORIO LUPERON HIGH SCHOOL FOR SCIENCE AND MATHEMATICS",56,339,349,326,1014,88,138,73,1.56818181818182,52.8985507246377,6,"M552",25.4307692307692,29.5384615384615,20.8461538461538,92.8,89.6,0,0,0,99.8,0,48.9,51.1,472,81.3,8.8,40.8380323220005,-73.9383710179996
"07X221","SOUTH BRONX PREPARATORY: A COLLEGE BOARD SCHOOL",65,364,378,348,1090,63,89,24,1.41269841269841,26.9662921348315,7,"X221",21.3866666666667,25.2666666666667,17.3333333333333,72.9,8.8,19.3,0.6,29.9,68.8,0.5,47.4,52.6,622,80,3.8,40.8140108160005,-73.9208365169996
"07X321","CROTONA ACADEMY HIGH SCHOOL",9,379,364,382,1125,NA,NA,NA,NA,NA,7,"X321",18.1416666666667,22,14.75,78.3,2.4,6.5,0.8,42.7,54,0.8,31.5,68.5,124,14.3,17.9,NA,NA
"07X334","INTERNATIONAL COMMUNITY HIGH SCHOOL",34,310,324,311,945,NA,NA,NA,NA,NA,7,"X334",16.2,19.5,12.3571428571429,77.5,90.1,1.8,4.8,20.1,71.8,2,48.6,51.4,393,NA,NA,40.8100361920005,-73.9178124819997
"07X379","JILL CHAIFETZ TRANSFER HIGH SCHOOL",NA,NA,NA,NA,NA,NA,NA,NA,NA,NA,7,"X379",23.8153846153846,25.6153846153846,21.8461538461538,71.7,3,7.6,0.5,40.9,56.6,1,36.9,63.1,198,10,16,NA,NA
"07X381","BRONX HAVEN HIGH SCHOOL",NA,NA,NA,NA,NA,NA,NA,NA,NA,NA,NA,NA,NA,NA,NA,64.7,7.8,8.5,0.7,35.9,62.7,0.7,37.3,62.7,153,NA,NA,NA,NA
"07X427","COMMUNITY SCHOOL FOR SOCIAL JUSTICE",43,361,359,357,1077,NA,NA,NA,NA,NA,7,"X427",22.64375,24.5,19.875,82.7,13.2,19.7,0.6,32.3,65.5,0.9,49.2,50.8,319,64.2,19.8,40.8160844810005,-73.9303238389996
"07X473","MOTT HAVEN VILLAGE PREPARATORY HIGH SCHOOL",63,351,375,371,1097,NA,NA,NA,NA,NA,7,"X473",24.3428571428571,27,21.3571428571429,78.5,9.6,18.5,1.1,22.6,76,0,50.1,49.9,363,63.8,14.5,40.8181735360005,-73.9110926629996
"07X495","UNIVERSITY HEIGHTS SECONDARY SCHOOL",79,403,394,404,1201,NA,NA,NA,NA,NA,7,"X495",26.8857142857143,30.1428571428571,22.0714285714286,90.1,3.7,5.2,2.6,18.1,78.1,1.3,43.2,56.8,465,NA,NA,40.8181735360005,-73.9110926629996
"07X500","HOSTOSsLINCOLN ACADEMY OF SCIENCE",66,420,426,411,1257,64,107,39,1.671875,36.4485981308411,7,"X500",21.3555555555556,24.1666666666667,18.7777777777778,68.3,5.6,11.9,2,24,72.7,0.7,45.2,54.8,538,83.6,1.6,40.8149553420005,-73.9125195419997
"07X520","FOREIGN LANGUAGE ACADEMY OF GLOBAL STUDIES",64,399,396,391,1186,13,13,12,1,92.3076923076923,7,"X520",23.2125,27,19.3125,89.9,21.9,22.5,3.2,26,68.8,1,45.3,54.7,311,60.3,7.4,40.8111388560005,-73.9097871269996
"07X527","BRONX LEADERSHIP ACADEMY II HIGH SCHOOL",62,362,378,363,1103,30,30,NA,1,NA,7,"X527",24.4066666666667,27.2,20.4,77,14.1,18.5,1.4,41.2,56,1,54,46,502,72.5,14.7,40.8227764900005,-73.9235227939997
"07X547","NEW EXPLORERS HIGH SCHOOL",28,367,356,361,1084,18,18,NA,1,NA,7,"X547",24.1545454545455,25.7272727272727,22.1818181818182,90.4,15.7,25.1,0.5,30.3,68.1,0.5,57.7,42.3,383,44.4,17.3,40.8227764900005,-73.9235227939997
"07X548","URBAN ASSEMBLY SCHOOL FOR CAREERS IN SPORTS",44,387,411,383,1181,NA,NA,NA,NA,NA,7,"X548",25.5388888888889,28.2777777777778,22.6666666666667,74.3,5,18.7,0.4,26.6,70.4,0.4,84.3,15.7,477,79.3,6.1,40.8227764900005,-73.9235227939997
"07X551","BRONX ACADEMY OF LETTERS",51,413,381,407,1201,53,92,37,1.73584905660377,40.2173913043478,7,"X551",23.12,28.5333333333333,17.7333333333333,79.1,9.4,24,0.5,34.1,64.3,0.9,44.5,55.5,555,73.7,6.6,40.8133593030005,-73.9255365149996
"07X600","ALFRED E. SMITH CAREER AND TECHNICAL EDUCATION HIGH SCHOOL",76,394,400,364,1158,11,11,NA,1,NA,7,"X600",27.3,33.0714285714286,18.9285714285714,76.7,9.1,22,1.4,35.9,61.5,0.7,92.7,7.3,738,40.8,18,40.8182468890005,-73.9197356779997
"07X655","SAMUEL GOMPERS CAREER AND TECHNICAL EDUCATION HIGH SCHOOL",47,398,416,370,1184,77,126,NA,1.63636363636364,NA,7,"X655",23.6294117647059,28.4117647058824,17.0588235294118,75.7,17,26.1,1.2,32.4,64.9,0.8,79.6,20.4,663,48.5,21.6,NA,NA
"07X670","HEALTH OPPORTUNITIES HIGH SCHOOL",114,363,368,364,1095,61,117,29,1.91803278688525,24.7863247863248,7,"X670",25.7333333333333,30.6666666666667,19.1333333333333,77.8,10.4,19.6,3.1,39.2,56.9,0.5,28.6,71.4,587,69.4,18.7,40.8160844810005,-73.9303238389996
"08X269","BRONX STUDIO SCHOOL FOR WRITERS AND ARTISTS",NA,NA,NA,NA,NA,NA,NA,NA,NA,NA,8,"X269",27.2285714285714,30.2857142857143,24.2857142857143,85.6,9.2,13.4,1.2,22.4,74.8,1,44,56,500,NA,NA,40.8206236370005,-73.8930735189996
"08X282","WOMEN'S ACADEMY OF EXCELLENCE",44,407,386,378,1171,21,22,NA,1.04761904761905,NA,8,"X282",22,25.6666666666667,18.1333333333333,72.2,2.6,15.6,2.9,45.9,46.4,2.4,0.3,99.7,379,66.7,16,40.8149183400005,-73.8565655349997
"08X293","RENAISSANCE HIGH SCHOOL FOR MUSICAL THEATER & TECHNOLOGY",52,384,385,389,1158,22,29,14,1.31818181818182,48.2758620689655,8,"X293",25.8266666666667,30.6666666666667,19.8666666666667,66.4,4.5,21.7,2.6,25.4,63.8,7.7,38,62,469,65.8,13.7,40.8405139770005,-73.8381209599996
"08X295","GATEWAY SCHOOL FOR ENVIRONMENTAL RESEARCH AND TECHNOLOGY",41,416,390,394,1200,NA,NA,NA,NA,NA,8,"X295",21.7,27.4705882352941,15.5294117647059,74.6,11.5,24.1,5.6,33.1,59.4,1,60,40,478,40.5,13.2,NA,NA
"08X305","PABLO NERUDA ACADEMY FOR ARCHITECTURE AND WORLD STUDIES",67,337,361,340,1038,NA,NA,NA,NA,NA,8,"X305",19.6769230769231,22.5384615384615,16.6923076923077,75.8,15.9,27.3,2.5,26.2,69.9,1.4,66,34,359,56.4,17.8,40.8223037650005,-73.8559613899996
"08X312","MILLENNIUM ART ACADEMY",67,387,402,375,1164,35,55,NA,1.57142857142857,NA,8,"X312",28.1571428571429,32,22.4285714285714,74.2,5.4,20.4,1.8,32.5,64.3,1,49.2,50.8,496,58.3,9.3,40.8223037650005,-73.8559613899996
"08X332","HOLCOMBE L. RUCKER SCHOOL OF COMMUNITY RESEARCH",39,363,371,350,1084,20,28,NA,1.4,NA,8,"X332",19.6882352941176,22.9411764705882,16.2352941176471,79.6,12.6,18,0.9,39.9,56.8,0.6,49.2,50.8,333,57.3,14.6,40.8174394460005,-73.8980492059997
"08X367","ARCHIMEDES ACADEMY FOR MATH, SCIENCE AND TECHNOLOGY APPLICATIONS",NA,NA,NA,NA,NA,NA,NA,NA,NA,NA,NA,NA,NA,NA,NA,87.3,2.6,22,2.8,35,60.2,2,62,38,500,NA,NA,40.8149183400005,-73.8565655349997
"08X376","ANTONIA PANTOJA PREPARATORY ACADEMY, A COLLEGE BOARD SCHOOL",NA,NA,NA,NA,NA,NA,NA,NA,NA,NA,8,"X376",23.5,24,23,81.3,7.4,24.1,4.9,27.8,66,0.7,47,53,432,NA,NA,40.8223037650005,-73.8559613899996
"08X377","BRONX COMMUNITY HIGH SCHOOL",9,367,369,376,1112,NA,NA,NA,NA,NA,NA,NA,NA,NA,NA,73.9,4.5,5,1,33,63.5,1,50.5,49.5,200,12.7,24.1,NA,NA
"08X405","HERBERT H. LEHMAN HIGH SCHOOL",415,412,436,393,1241,430,532,197,1.23720930232558,37.0300751879699,8,"X405",27.4842105263158,32.9473684210526,15.4210526315789,66.8,9.2,20.9,6.8,23,60.6,9,61.1,38.9,3593,44.6,21.2,40.8405139770005,-73.8381209599996
"08X408","HERBERT H. LEHMAN YABC",6,402,373,413,1188,NA,NA,NA,NA,NA,NA,NA,NA,NA,NA,NA,NA,NA,NA,NA,NA,NA,NA,NA,NA,NA,NA,NA,NA
"08X432","BRONX BRIDGES HIGH SCHOOL",NA,NA,NA,NA,NA,NA,NA,NA,NA,NA,8,"X432",19.08,21,17.2,87.2,79.4,7.7,5.2,8.4,83.2,2.6,52.3,47.7,155,NA,NA,40.8223037650005,-73.8559613899996
"08X452","BRONX GUILD",39,369,371,365,1105,NA,NA,NA,NA,NA,NA,NA,NA,NA,NA,69.2,7.2,23,3.9,33.8,61.3,0.7,49.5,50.5,305,62.5,6.3,40.8223037650005,-73.8559613899996
"08X507","STEVENSON YABC",NA,NA,NA,NA,NA,NA,NA,NA,NA,NA,NA,NA,NA,NA,NA,NA,NA,NA,NA,NA,NA,NA,NA,NA,NA,NA,NA,NA,NA
"08X519","FELISA RINCON DE GAUTIER INSTITUTE FOR LAW AND PUBLIC POLICY, THE",68,373,370,356,1099,NA,NA,NA,NA,NA,8,"X519",24.01875,28.9375,19.4375,72.3,14,20.9,1.4,21.8,76,0.6,43,57,363,52.5,17.2,40.8211707700005,-73.8811363459996
"08X530","BANANA KELLY HIGH SCHOOL",54,373,381,377,1131,NA,NA,NA,NA,NA,8,"X530",25.2846153846154,30,20.5384615384615,81.9,13.5,25.7,0.7,32.6,65.4,1.1,49.9,50.1,451,41.7,23.1,40.8174394460005,-73.8980492059997
"08X537","BRONX ARENA HIGH SCHOOL",NA,NA,NA,NA,NA,NA,NA,NA,NA,NA,NA,NA,NA,NA,NA,NA,NA,NA,NA,NA,NA,NA,NA,NA,NA,NA,NA,NA,NA
"08X540","SCHOOL FOR COMMUNITY RESEARCH AND LEARNING",16,366,400,368,1134,9,9,NA,1,NA,8,"X540",18.5,22.1333333333333,15.4,83.8,11,28.3,4.7,28.8,64.9,1,57.1,42.9,191,49.4,15.7,NA,NA
"08X560","HIGH SCHOOL X560 s BRONX ACADEMY HIGH SCHOOL",9,404,368,399,1171,NA,NA,NA,NA,NA,8,"X560",27.5833333333333,30.0833333333333,23.5833333333333,NA,NA,NA,NA,NA,NA,NA,NA,NA,NA,19.9,17,NA,NA
"08X650","JANE ADDAMS HIGH SCHOOL FOR ACADEMIC CAREERS",78,377,359,376,1112,44,69,8,1.56818181818182,11.5942028985507,8,"X650",24.4833333333333,30.25,16.6666666666667,85.7,11.2,22.2,1.5,36.8,60.8,0.3,28.3,71.7,717,43,25.8,NA,NA
"09X227","BRONX EXPEDITIONARY LEARNING HIGH SCHOOL",39,324,376,349,1049,NA,NA,NA,NA,NA,9,"X227",22.7142857142857,28.3571428571429,17.3571428571429,83.9,29.3,21.1,1.1,27.9,69.3,0.8,50.1,49.9,355,57.3,8.3,40.8403733980005,-73.9108380079996
"09X231","EAGLE ACADEMY FOR YOUNG MEN",78,373,387,374,1134,32,44,11,1.375,25,9,"X231",25.4733333333333,30.3333333333333,19.8666666666667,60.4,4,24.2,0.7,63.1,33.8,0.5,100,0,550,63,4,40.8451853270005,-73.8969806679996
"09X239","URBAN ASSEMBLY ACADEMY FOR HISTORY AND CITIZENSHIP FOR YOUNG MEN, THE",33,372,355,357,1084,9,9,NA,1,NA,9,"X239",21.2529411764706,23.2352941176471,19.2941176470588,50.2,19.9,27.7,0.7,56.7,40.4,0.7,100,0,141,41.9,24.3,NA,NA
"09X241","URBAN ASSEMBLY SCHOOL FOR APPLIED MATH AND SCIENCE, THE",80,411,464,415,1290,16,16,NA,1,NA,9,"X241",21.5294117647059,25,17.8235294117647,79.5,9.4,14.7,2.6,32,63.4,1.5,49.3,50.7,606,NA,NA,40.8393271260005,-73.9013097899996
"09X250","EXIMIUS COLLEGE PREPARATORY ACADEMY: A COLLEGE BOARD SCHOOL",50,393,394,382,1169,90,146,11,1.62222222222222,7.53424657534247,9,"X250",24.6076923076923,29.3846153846154,20.3846153846154,62.9,8.1,18.8,0.6,40.7,58.1,0.3,46.6,53.4,356,60,5,40.8337385590005,-73.9024482449997
"09X252","MOTT HALL BRONX HIGH SCHOOL",67,369,367,356,1092,NA,NA,NA,NA,NA,9,"X252",27.7142857142857,31.8571428571429,23.8571428571429,58.9,8.8,15.5,1.1,24.3,73.7,0.8,45.8,54,354,77.6,1.9,40.8393271260005,-73.9013097899996
"09X260","BRONX CENTER FOR SCIENCE AND MATHEMATICS",81,459,480,457,1396,62,80,35,1.29032258064516,43.75,9,"X260",22.6705882352941,28.8235294117647,16.3529411764706,70,1.6,14,5.9,24.3,68.7,1.1,46.2,53.8,444,88,4,40.8337385590005,-73.9024482449997
"09X263","VALIDUS PREPARATORY ACADEMY: AN EXPEDITIONARY LEARNING SCHOOL",74,356,363,356,1075,7,7,NA,1,NA,9,"X263",26.2857142857143,29.1428571428571,22.7857142857143,76.1,12.1,16.2,1.1,34.2,63.8,0.3,44.1,55.9,365,75,11.7,40.8393271260005,-73.9013097899996
"09X276","LEADERSHIP INSTITUTE",30,361,353,367,1081,17,17,7,1,41.1764705882353,9,"X276",22.1,25.7058823529412,18,94.8,16.5,16.1,1.7,33,63.5,1.3,52.2,47.8,230,53.7,20.9,40.8412708780005,-73.8979786769996
"09X297","MORRIS ACADEMY FOR COLLABORATIVE STUDIES",38,386,386,376,1148,NA,NA,NA,NA,NA,9,"X297",22.8466666666667,27.6666666666667,18,79.1,19.1,22.4,0.4,26,73.1,0.4,53.8,46.2,450,67.7,15.2,40.8276026690005,-73.9044752569996
"09X324","BRONX EARLY COLLEGE ACADEMY FOR TEACHING & LEARNING",NA,NA,NA,NA,NA,NA,NA,NA,NA,NA,9,"X324",27.9625,30,26,79.4,11,16.2,3,32,64.5,0.2,48.5,51.5,493,NA,NA,40.8287141800005,-73.9177557019996
"09X329","DREAMYARD PREPARATORY SCHOOL",51,382,365,391,1138,15,15,NA,1,NA,9,"X329",22.8857142857143,28.7857142857143,15.8571428571429,80,24.4,19.5,0,26.9,69.9,0.3,44.1,55.9,349,43,16.1,40.8403733980005,-73.9108380079996
"09X365","ACADEMY FOR LANGUAGE AND TECHNOLOGY",54,315,339,297,951,20,20,20,1,100,9,"X365",23.7142857142857,28,18.3571428571429,85.7,86.6,0.9,0,0.6,99.4,0,48.8,51.2,336,NA,NA,40.8491021680005,-73.9160884409997
"09X403","BRONX INTERNATIONAL HIGH SCHOOL",49,314,312,339,965,NA,NA,NA,NA,NA,9,"X403",15.6111111111111,22,12.4444444444444,82.3,87.1,1.2,1,22.8,72.2,3.7,45.7,54.3,403,65.9,4.5,40.8276026690005,-73.9044752569996
"09X404","SCHOOL FOR EXCELLENCE",32,363,360,351,1074,NA,NA,NA,NA,NA,9,"X404",24.3,30.2,20.9,81.4,20.7,26.2,0.3,34.5,64.5,0,52.3,47.7,386,54.6,9.3,40.8276026690005,-73.9044752569996
"09X412","BRONX HIGH SCHOOL OF BUSINESS",34,356,376,351,1083,26,31,9,1.19230769230769,29.0322580645161,9,"X412",23.1846153846154,29.3076923076923,17.2307692307692,77.6,23.2,23.2,0.7,38.7,59.9,0.5,54.9,45.1,401,49.1,16.4,40.8403733980005,-73.9108380079996
"09X413","BRONX HIGH SCHOOL FOR MEDICAL SCIENCE",64,400,419,402,1221,NA,NA,NA,NA,NA,9,"X413",26.0357142857143,30.3571428571429,21.5,76.9,5.7,8.6,5.3,36.7,57.8,0.2,42.2,57.8,455,83.5,1,40.8403733980005,-73.9108380079996
"09X414","JONATHAN LEVIN HIGH SCHOOL FOR MEDIA AND COMMUNICATIONS",35,379,364,379,1122,18,18,NA,1,NA,9,"X414",24.6909090909091,29.7272727272727,19.1818181818182,77.7,38.5,20.9,0.5,22.3,75.4,1.6,53.4,46.6,382,45.5,4.1,NA,NA
"09X505","BRONX SCHOOL FOR LAW, GOVERNMENT AND JUSTICE",80,404,418,402,1224,45,55,27,1.22222222222222,49.0909090909091,9,"X505",27.7666666666667,31.3333333333333,23.1428571428571,66.2,6.6,14,2,30.4,66.2,1,45.9,54.1,763,77,4.1,40.8275893670005,-73.9186681599996
"09X517","FREDERICK DOUGLASS ACADEMY III SECONDARY SCHOOL",50,368,384,369,1121,26,36,NA,1.38461538461538,NA,9,"X517",22.95625,27.5,17.5625,79.7,6.4,17.7,1.1,56.2,41.4,0.4,51.5,48.5,532,78.2,1.1,40.8341672500004,-73.9040329479997
"09X525","BRONX LEADERSHIP ACADEMY HIGH SCHOOL",114,384,394,388,1166,40,42,8,1.05,19.047619047619,9,"X525",26.86875,30.6875,22.8125,76.9,9.6,20.3,0.7,41.1,57,0,43.3,56.7,705,68.5,18.5,40.8435811950005,-73.9032200379996
"09X543","HIGH SCHOOL FOR VIOLIN AND DANCE",27,353,315,371,1039,NA,NA,NA,NA,NA,9,"X543",22.5,24.5,20.625,84.3,8.7,22.3,0.3,36.8,62.5,0,14.6,85.4,323,78.7,4.3,40.8276026690005,-73.9044752569996
"10X141","RIVERDALE / KINGSBRIDGE ACADEMY (MIDDLE SCHOOL / HIGH SCHOOL 141)",113,438,455,440,1333,133,184,119,1.38345864661654,64.6739130434783,10,"X141",26.7941176470588,30.7058823529412,21.3529411764706,39.7,6.7,15.2,8.8,13,53,24.9,51.8,48.2,1337,86.7,3.7,40.8883728490005,-73.9140932039997
"10X213","BRONX ENGINEERING AND TECHNOLOGY ACADEMY",86,373,412,365,1150,107,228,10,2.13084112149533,4.3859649122807,10,"X213",22.0230769230769,25.7692307692308,18.6923076923077,79.8,15.5,21.4,5.2,29.5,64.2,0.9,82.7,17.3,444,75.3,5.5,40.8770494430005,-73.9123365989997
"10X225","THEATRE ARTS PRODUCTION COMPANY SCHOOL",59,405,391,394,1190,17,27,NA,1.58823529411765,NA,10,"X225",25.04,26.7333333333333,23.2666666666667,67.4,4.4,18.9,1.1,27.3,69.7,1.1,30.9,69.1,524,93.5,1.6,40.8546465990005,-73.8966455529996
"10X237","THE MARIE CURIE SCHOOL FOR MEDICINE, NURSING, AND HEALTH PROFESSIONS",79,382,393,382,1157,15,15,NA,1,NA,10,"X237",25.8125,32.0625,19.875,71.5,6.7,15.6,1.5,35.6,57.4,3.3,16.5,83.5,540,73.1,4.5,40.8759754490005,-73.9012348919997
"10X243","WEST BRONX ACADEMY FOR THE FUTURE",26,382,406,370,1158,25,29,14,1.16,48.2758620689655,10,"X243",25.0428571428571,27.9285714285714,21.3571428571429,86.3,13.2,19.5,3.5,24.7,69.5,1.3,57.9,42.1,636,48.6,16.7,40.8600122210005,-73.8882296039997
"10X268","KINGSBRIDGE INTERNATIONAL HIGH SCHOOL",52,304,356,302,962,32,37,NA,1.15625,NA,10,"X268",29.6285714285714,32.4285714285714,27,95.1,88.7,0.4,6.8,5.4,84.7,3,52.3,47.7,497,56.8,11,40.8703774670005,-73.8981629519997
"10X284","BRONX SCHOOL OF LAW AND FINANCE",54,402,395,385,1182,21,27,NA,1.28571428571429,NA,10,"X284",23.3588235294118,28.9411764705882,16.7647058823529,74.2,7.1,15.2,0.7,31.5,65.2,2.6,56.6,43.4,422,58.6,19.2,40.8770494430005,-73.9123365989997
"10X319","PROVIDING URBAN LEARNERS SUCCESS IN EDUCATION HIGH SCHOOL",NA,NA,NA,NA,NA,NA,NA,NA,NA,NA,10,"X319",16.9571428571429,22,14.5714285714286,81.8,5.2,16.4,0,37.6,61.5,0.5,40.4,59.6,213,21.2,21.2,NA,NA
"10X342","INTERNATIONAL SCHOOL FOR LIBERAL ARTS",49,300,333,301,934,55,73,45,1.32727272727273,61.6438356164384,10,"X342",23.7230769230769,28.7692307692308,16.6153846153846,78.3,79.9,4.6,0.2,0,99.8,0,49,51,606,59,12,40.8703774670005,-73.8981629519997
"10X368","INsTECH ACADEMY (M.S. / HIGH SCHOOL 368)",111,390,408,383,1181,40,54,17,1.35,31.4814814814815,10,"X368",26.2666666666667,30.6,20.1333333333333,77.9,12.1,14.3,4,11.9,81.9,2,48.9,51.1,1126,62.6,12.2,40.8800500930005,-73.9092090479997
"10X374","KNOWLEDGE AND POWER PREPARATORY ACADEMY INTERNATIONAL HIGH SCHOOL (KAPPA)",61,392,401,387,1180,NA,NA,NA,NA,NA,10,"X374",22.75,28.4444444444444,17.1111111111111,75.3,9.3,11.1,0.9,35.2,59.9,3.1,47.2,52.8,324,NA,NA,40.8600122210005,-73.8882296039997
"10X397","ENGLISH LANGUAGE LEARNERS AND INTERNATIONAL SUPPORT PREPARATORY ACADEMY (ELLIS)",38,343,356,330,1029,NA,NA,NA,NA,NA,10,"X397",17.94,21.4,14.5,92.8,80.4,0,7,16.5,72.5,1.9,55.7,44.3,316,NA,NA,NA,NA
"10X433","HIGH SCHOOL FOR TEACHING AND THE PROFESSIONS",57,370,371,365,1106,62,83,13,1.33870967741935,15.6626506024096,10,"X433",20.8,24.3125,16.25,88.1,17.8,20.1,2.5,25.2,70.4,1.9,42.3,57.7,473,65.7,22.4,40.8703774670005,-73.8981629519997
"10X434","BELMONT PREPARATORY HIGH SCHOOL",51,404,418,400,1222,31,45,10,1.45161290322581,22.2222222222222,10,"X434",22.36,27.6666666666667,17.1333333333333,76.8,11.3,15.7,3.2,29,65.6,1.7,47.2,52.8,407,63.5,11.5,40.8600122210005,-73.8882296039997
"10X437","FORDHAM HIGH SCHOOL FOR THE ARTS",48,355,350,372,1077,NA,NA,NA,NA,NA,10,"X437",22.8882352941176,26.4705882352941,18.8235294117647,78.3,12.4,22.5,1.6,35.7,61.5,1.3,43.2,56.8,387,73.2,7.3,40.8600122210005,-73.8882296039997
"10X438","FORDHAM LEADERSHIP ACADEMY FOR BUSINESS AND TECHNOLOGY",63,367,385,367,1119,42,47,12,1.11904761904762,25.531914893617,10,"X438",21.35625,25,17.4375,78.9,16.6,20.6,2.7,27.7,67.8,1.3,63.4,36.6,451,51.4,16,40.8600122210005,-73.8882296039997
"10X439","BRONX HIGH SCHOOL FOR LAW AND COMMUNITY SERVICE",65,366,364,352,1082,44,65,9,1.47727272727273,13.8461538461538,10,"X439",21.7294117647059,25.5882352941176,16.8823529411765,80.2,13.4,20.8,2.3,30.8,64.6,0.9,44.4,55.6,432,40,12.2,40.8600122210005,-73.8882296039997
"10X440","DEWITT CLINTON HIGH SCHOOL",443,419,426,410,1255,366,540,262,1.47540983606557,48.5185185185185,10,"X440",26.0526315789474,32.3157894736842,14.6315789473684,74.8,19,14.9,6.7,30.8,59.6,2.1,51.1,48.9,4159,56.5,17.5,40.8800818400005,-73.8859015329996
"10X442","CELIA CRUZ BRONX HIGH SCHOOL OF MUSIC, THE",52,423,420,427,1270,31,35,8,1.12903225806452,22.8571428571429,10,"X442",23.2611111111111,26.6666666666667,19.3888888888889,74.7,3.5,7.8,0.5,27.2,69.5,2.4,40.7,59.3,423,74.4,7.3,40.8703774670005,-73.8981629519997
"10X445","BRONX HIGH SCHOOL OF SCIENCE",731,632,688,649,1969,1190,2435,2189,2.04621848739496,89.8973305954825,10,"X445",31.1631578947368,34.2105263157895,23.3684210526316,34.2,0.1,0.1,63.5,3.5,7.2,25.4,57.8,42.2,3013,98.4,0,40.8770563680005,-73.8897803509996
"10X475","JOHN F. KENNEDY HIGH SCHOOL",109,351,362,339,1052,46,48,19,1.04347826086957,39.5833333333333,10,"X475",25.19375,29.875,18.5,77.8,23.8,20.8,0.7,35.1,62.7,1.4,68.3,31.7,706,35.7,29.3,NA,NA
"10X477","MARBLE HILL HIGH SCHOOL FOR INTERNATIONAL STUDIES",99,414,435,414,1263,83,141,37,1.69879518072289,26.241134751773,10,"X477",23.1588235294118,28.1176470588235,16.2352941176471,83.9,32.2,6.8,11,23,57.9,7.5,46.7,53.3,456,88.8,0,40.8770494430005,-73.9123365989997
"10X478","LEARNING TO WORK GED AT JOHN F. KENNEDY",NA,NA,NA,NA,NA,NA,NA,NA,NA,NA,NA,NA,NA,NA,NA,NA,NA,NA,NA,NA,NA,NA,NA,NA,NA,NA,NA,NA,NA
"10X546","BRONX THEATRE HIGH SCHOOL",68,348,362,354,1064,34,34,NA,1,NA,10,"X546",24.1230769230769,31.0769230769231,17.2307692307692,73.7,9.4,15.1,0.4,28.8,69,1.8,32.1,67.9,445,51.9,18.5,40.8770494430005,-73.9123365989997
"10X549","DISCOVERY HIGH SCHOOL",55,372,379,364,1115,NA,NA,NA,NA,NA,10,"X549",23.8538461538462,29.6153846153846,17.7692307692308,80,20.6,17.8,2.1,20.2,75.6,1.3,52.4,47.6,529,64.6,13.5,40.8703774670005,-73.8981629519997
"10X660","GRACE DODGE CAREER AND TECHNICAL EDUCATION HIGH SCHOOL",73,362,382,356,1100,NA,NA,NA,NA,NA,10,"X660",25.35,31,15.6875,71,18.8,24.1,1.5,30.1,67.1,0.9,40,60,1162,42,27.1,NA,NA
"10X667","GRACE DODGE YABC",10,350,356,317,1023,NA,NA,NA,NA,NA,NA,NA,NA,NA,NA,NA,NA,NA,NA,NA,NA,NA,NA,NA,NA,NA,NA,NA,NA
"10X696","HIGH SCHOOL OF AMERICAN STUDIES AT LEHMAN COLLEGE",92,636,648,636,1920,194,302,243,1.55670103092784,80.4635761589404,10,"X696",22.1894736842105,25.4210526315789,18.4210526315789,20.8,0,1.3,16.7,10.6,18,53.8,53.8,46.2,377,97.4,1.3,40.8712553740005,-73.8975162039997
"11X249","BRONX HEALTH SCIENCES HIGH SCHOOL",74,370,381,382,1133,NA,NA,NA,NA,NA,11,"X249",22.6714285714286,29.2142857142857,16.6428571428571,73.9,6.1,7.4,4.8,56.8,36.3,0.5,35.3,64.7,377,96.6,0,40.8741317980005,-73.8338045129997
"11X253","BRONX HIGH SCHOOL FOR WRITING AND COMMUNICATION ARTS",46,400,357,390,1147,28,30,NA,1.07142857142857,NA,11,"X253",23.66,29.2,17.6666666666667,72.4,8.5,14.5,2.4,48.3,47.6,1.7,40.8,59.2,422,66.9,11.9,40.8757542110005,-73.8613878339996
"11X265","BRONX LAB SCHOOL",81,377,391,367,1135,NA,NA,NA,NA,NA,11,"X265",22.0785714285714,25.7857142857143,18.1428571428571,75.5,3.7,15.8,2.7,37.8,57.3,1.7,59.5,40.5,482,62.8,7.4,40.8757542110005,-73.8613878339996
"11X270","ACADEMY FOR SCHOLARSHIP AND ENTREPRENEURSHIP: A COLLEGE BOARD SCHOOL",56,386,394,361,1141,24,24,NA,1,NA,11,"X270",28.1571428571429,32.3571428571429,24.7142857142857,63.7,6.3,18.5,2.5,63.7,32,0.7,52,48,606,66.2,3.1,40.8879192140005,-73.8528716139996
"11X275","HIGH SCHOOL OF COMPUTERS AND TECHNOLOGY",72,381,376,354,1111,NA,NA,NA,NA,NA,11,"X275",28.3,31.9,23.8,71.8,10.2,20.2,3.6,34.9,59.5,1.3,87.3,12.7,550,82.2,3.3,40.8757542110005,-73.8613878339996
"11X288","COLLEGIATE INSTITUTE FOR MATH AND SCIENCE",97,444,471,433,1348,79,111,33,1.40506329113924,29.7297297297297,11,"X288",24.1176470588235,29.1176470588235,18.5294117647059,67.9,3.3,14,9.2,36.8,46.8,7,57.1,42.9,543,74.4,15.7,40.8596983160004,-73.8607414039997
"11X290","BRONX ACADEMY OF HEALTH CAREERS",69,387,365,383,1135,NA,NA,NA,NA,NA,11,"X290",27.10625,31.8125,22.1875,70.8,7.7,19,3.3,52.6,41.2,1,32.7,67.3,483,62.6,18.2,40.8757542110005,-73.8613878339996
"11X299","ASTOR COLLEGIATE ACADEMY",60,387,391,391,1169,36,48,12,1.33333333333333,25,11,"X299",24.1933333333333,29.6666666666667,19,64.4,7.6,21.7,5.4,35.7,46,11.8,58.6,41.4,498,64.9,9,40.8596983160004,-73.8607414039997
"11X415","CHRISTOPHER COLUMBUS HIGH SCHOOL",121,367,361,353,1081,34,34,6,1,17.6470588235294,11,"X415",27.2941176470588,31.2352941176471,21.6470588235294,59.2,18.3,24.1,5.8,34.9,46.5,12.7,55.2,44.8,727,41.6,13.6,NA,NA
"11X417","YOUNG ADULT BOROUGH CNTR CHRISTOPHER COLUMBUS HS",NA,NA,NA,NA,NA,NA,NA,NA,NA,NA,NA,NA,NA,NA,NA,NA,NA,NA,NA,NA,NA,NA,NA,NA,NA,NA,NA,NA,NA
"11X418","BRONX HIGH SCHOOL FOR THE VISUAL ARTS",48,419,433,416,1268,26,41,9,1.57692307692308,21.9512195121951,11,"X418",26.9647058823529,29.0588235294118,24.9411764705882,68.7,5.2,20.9,1.9,29.2,62.3,6.4,58,42,483,62.1,15.8,40.8514334850005,-73.8650179589996
"11X455","HARRY S TRUMAN HIGH SCHOOL",189,386,397,368,1151,103,135,27,1.31067961165049,20,11,"X455",28.5444444444444,34.3333333333333,16.1666666666667,50.6,9.2,25.1,2,51.8,43.8,1.3,60,40,1773,59.8,13.8,40.8741317980005,-73.8338045129997
"11X456","LEARNING TO WORK YABC AT TRUMAN HIGH SCHOOL",NA,NA,NA,NA,NA,NA,NA,NA,NA,NA,NA,NA,NA,NA,NA,NA,NA,NA,NA,NA,NA,NA,NA,NA,NA,NA,NA,NA,NA
"11X513","NEW WORLD HIGH SCHOOL",72,332,381,335,1048,12,12,NA,1,NA,11,"X513",21.7166666666667,25.5,17,79.5,80.1,1.5,12.4,13.2,70.4,3.2,50,50,402,74.2,3.2,40.8879192140005,-73.8528716139996
"11X514","THE BRONXWOOD PREPARATORY ACADEMY",48,377,372,363,1112,NA,NA,NA,NA,NA,11,"X514",22.9875,27,18.375,66.7,7,20.9,1.9,58.2,37.3,1,61.3,38.7,416,50,15.2,40.8879192140005,-73.8528716139996
"11X541","GLOBAL ENTERPRISE HIGH SCHOOL",57,372,382,375,1129,NA,NA,NA,NA,NA,11,"X541",21.2875,25.1875,17.0625,80.3,14.4,17.8,4.1,35.9,54.1,5.6,56.7,43.3,270,50.9,16.4,NA,NA
"11X542","PELHAM PREPARATORY ACADEMY",76,431,438,419,1288,46,57,17,1.23913043478261,29.8245614035088,11,"X542",27.4529411764706,31.6470588235294,22.1764705882353,61,2.2,14.2,2.4,40.2,49.7,6.9,48.1,51.9,507,89.2,3.6,40.8596983160004,-73.8607414039997
"11X544","HIGH SCHOOL FOR CONTEMPORARY ARTS",55,383,378,365,1126,NA,NA,NA,NA,NA,11,"X544",25.6235294117647,30.4705882352941,20.5294117647059,71.9,10.2,21.3,1,37.2,59.9,1,55.3,44.7,479,60.2,2.5,40.8757542110005,-73.8613878339996
"11X545","BRONX AEROSPACE HIGH SCHOOL",46,388,393,382,1163,NA,NA,NA,NA,NA,11,"X545",20.7736842105263,25.7894736842105,16.8947368421053,45.6,14.7,25.7,2.2,23.8,72.6,1.2,82.5,17.5,416,88.6,4.3,40.8757542110005,-73.8613878339996
"12X245","NEW DAY ACADEMY",25,348,344,354,1046,NA,NA,NA,NA,NA,12,"X245",20.45,22.6428571428571,18.4285714285714,87,11,23,1,45.5,53.4,0,48.2,51.8,191,27.8,25,NA,NA
"12X248","METROPOLITAN HIGH SCHOOL, THE",49,347,367,341,1055,25,25,NA,1,NA,12,"X248",23.2923076923077,25.4615384615385,20.6153846153846,86.6,21.8,20.9,1.8,24.2,72.9,0.9,54,46,339,71.2,12.5,40.8252260600005,-73.8939498889997
"12X251","EXPLORATIONS ACADEMY",57,381,381,360,1122,NA,NA,NA,NA,NA,12,"X251",21.15625,23.8125,18.5,76.4,19.9,21.3,1.7,31.2,65.5,1.4,50.8,49.2,362,72.5,17.4,40.8359373280005,-73.8904676929996
"12X262","PERFORMANCE CONSERVATORY HIGH SCHOOL",30,361,353,360,1074,NA,NA,NA,NA,NA,12,"X262",25.9153846153846,30.1538461538462,21.7692307692308,61.9,10,28.1,1.2,39.2,57.7,0.8,24.6,75.4,260,45.1,18.6,NA,NA
"12X267","BRONX LATIN",36,408,432,411,1251,NA,NA,NA,NA,NA,12,"X267",21.7,26.0714285714286,17.5,79.3,13.6,21.5,0.2,25.6,73.2,1,49.8,50.2,418,NA,NA,40.8277639790004,-73.9003868129996
"12X271","EAST BRONX ACADEMY FOR THE FUTURE",46,366,378,358,1102,32,37,NA,1.15625,NA,12,"X271",26.9785714285714,30.7857142857143,22.2142857142857,86.2,11.6,24.1,1.9,29.4,68.3,0.2,53,47,619,67.6,12.2,40.8369534260005,-73.8879617579997
"12X278","PEACE AND DIVERSITY ACADEMY",34,390,401,364,1155,8,8,NA,1,NA,12,"X278",21.0421052631579,22.2105263157895,19.9473684210526,78.8,13.9,17.3,1.7,43.7,53.7,0.9,45,55,231,49,15.6,40.8252260600005,-73.8939498889997
"12X388","PAN AMERICAN INTERNATIONAL HIGH SCHOOL AT MONROE",30,321,351,298,970,NA,NA,NA,NA,NA,12,"X388",15.3615384615385,18.0769230769231,13.2307692307692,100,92.9,0.2,0,0,99.8,0,51.5,48.5,406,NA,NA,40.8313664900004,-73.8788232769996
"12X428","LEARNING TO WORK YABC AT MONROE ACADEMY",NA,NA,NA,NA,NA,NA,NA,NA,NA,NA,NA,NA,NA,NA,NA,NA,NA,NA,NA,NA,NA,NA,NA,NA,NA,NA,NA,NA,NA
"12X446","ARTURO A. SCHOMBURG SATELLITE ACADEMY BRONX",14,380,372,349,1101,NA,NA,NA,NA,NA,NA,NA,NA,NA,NA,62.1,4.8,9.2,0.4,41.2,57,0,33.3,66.7,228,NA,NA,NA,NA
"12X478","THE CINEMA SCHOOL",NA,NA,NA,NA,NA,NA,NA,NA,NA,NA,12,"X478",22.6909090909091,25,18.7272727272727,75.9,4,4,4.5,28.7,65,1.8,40.8,59.2,223,NA,NA,40.8313645320005,-73.8783446749996
"12X479","BRONX CAREER AND COLLEGE PREPARATORY HIGH SCHOOL",NA,NA,NA,NA,NA,NA,NA,NA,NA,NA,12,"X479",21.9428571428571,24.1428571428571,18.8571428571429,72.2,16.8,27.5,2.5,37.3,59.8,0.4,44.3,55.7,244,NA,NA,40.8277639790004,-73.9003868129996
"12X480","BRONX REGIONAL HIGH SCHOOL",16,398,385,398,1181,NA,NA,NA,NA,NA,12,"X480",27.2833333333333,31.8333333333333,22.8333333333333,NA,NA,NA,NA,NA,NA,NA,NA,NA,NA,26.2,6.5,NA,NA
"12X550","HIGH SCHOOL OF WORLD CULTURES",42,304,323,312,939,NA,NA,NA,NA,NA,12,"X550",23.1666666666667,28.7333333333333,17.9333333333333,90.6,86.4,0.5,2.4,10.8,84.6,0.5,52,48,369,69.2,1.9,40.8313664900004,-73.8788232769996
"12X682","FANNIE LOU HAMER FREEDOM HIGH SCHOOL",72,342,346,341,1029,NA,NA,NA,NA,NA,12,"X682",22.4666666666667,25.4166666666667,18.75,81.1,11.5,26.2,0.2,30.6,68.8,0.2,54.1,45.9,477,60.5,7.6,40.8308071540005,-73.8860213159996
"12X684","WINGS ACADEMY",66,378,374,362,1114,20,27,NA,1.35,NA,12,"X684",24.5470588235294,29.7647058823529,19.1176470588235,66.4,4.5,22.3,1.3,55,42.2,1.3,53.7,46.3,538,66.4,10.3,40.8418052210005,-73.8754177129996
"12X690","MONROE ACADEMY FOR BUSINESS/LAW",31,375,387,376,1138,7,7,NA,1,NA,12,"X690",22.9066666666667,27.8,18.2,80.8,14.9,18.5,2.4,26.9,69.1,0.4,60.6,39.4,249,47.4,26.3,NA,NA
"12X692","MONROE ACADEMY FOR VISUAL ARTS & DESIGN",43,332,357,349,1038,NA,NA,NA,NA,NA,12,"X692",22.2,30.1818181818182,16.4545454545455,87.3,28.8,20.8,0.9,20.4,77.5,1.3,52.6,47.4,466,47.3,11.6,40.8313664900004,-73.8788232769996
"13K265","DR. SUSAN S. MCKINNEY SECONDARY SCHOOL OF THE ARTS",29,352,349,373,1074,17,22,NA,1.29411764705882,NA,13,"K265",21.44375,25.5,16.6875,71.1,4.3,20.3,0.5,72,24.6,1.8,37,63,443,81.5,3.7,40.6963437730005,-73.9757711019996
"13K336","ACADEMY OF BUSINESS AND COMMUNITY DEVELOPMENT",9,439,374,418,1231,NA,NA,NA,NA,NA,13,"K336",21.2875,21.625,20.875,59.1,3.1,21.3,2.7,88.9,7.1,0.4,99.6,0.4,225,NA,NA,NA,NA
"13K350","URBAN ASSEMBLY HIGH SCHOOL OF MUSIC AND ART",52,360,364,356,1080,NA,NA,NA,NA,NA,13,"K350",22.1692307692308,28.5384615384615,18.8461538461538,74.1,4.6,22.5,1.9,73.3,22.7,0.9,42.7,57.3,431,71.9,7.3,40.6971747270005,-73.9849596889997
"13K412","BROOKLYN COMMUNITY HIGH SCHOOL OF COMMUNICATION, ARTS AND MEDIA",37,375,355,384,1114,21,21,NA,1,NA,13,"K412",25.2,28.8666666666667,20.6666666666667,68.9,2.4,18,0.6,79.2,17.1,1.3,45.5,54.5,462,50,2.6,40.6925822560005,-73.9588731169996
"13K419","SCIENCE SKILLS CENTER HIGH SCHOOL FOR SCIENCE, TECHNOLOGY AND THE CREATIVE ARTS",92,399,417,395,1211,52,59,NA,1.13461538461538,NA,13,"K419",27.1611111111111,32.2222222222222,20.1111111111111,60.7,7,13.7,7.2,77.8,12.2,2.1,56.1,43.9,517,59.3,7.4,40.6971747270005,-73.9849596889997
"13K430","BROOKLYN TECHNICAL HIGH SCHOOL",1277,587,659,587,1833,2117,3692,2687,1.74397732640529,72.7789815817985,13,"K430",32.4526315789474,33.9473684210526,28.5789473684211,50.7,0.1,0.5,60.3,10.2,7.9,21.3,58.3,41.7,5332,91.4,0.2,40.6881074230005,-73.9767450719996
"13K439","BROOKLYN INTERNATIONAL HIGH SCHOOL",90,305,364,312,981,NA,NA,NA,NA,NA,13,"K439",19.5857142857143,21.3571428571429,17.2142857142857,80,83.1,0,42.5,20.2,28.6,8.7,48.2,51.8,367,81.7,4.3,40.6971747270005,-73.9849596889997
"13K483","THE URBAN ASSEMBLY SCHOOL FOR LAW AND JUSTICE",105,400,417,389,1206,31,57,24,1.83870967741935,42.1052631578947,13,"K483",22.2214285714286,26.3571428571429,17.5,60.5,0.9,13.3,0.9,79.1,17.1,1.1,39.6,60.4,450,84.4,1.8,40.6946201190005,-73.9886239449996
"13K499","ACORN COMMUNITY HIGH SCHOOL",72,384,364,368,1116,64,95,NA,1.484375,NA,13,"K499",27.1533333333333,32.0666666666667,20.2666666666667,81,2.9,18.6,1.2,84.7,12.2,0.8,55.8,44.2,731,73.4,8.3,40.6785089140005,-73.9620673059997
"13K509","FREEDOM ACADEMY HIGH SCHOOL",29,400,390,403,1193,74,89,NA,1.2027027027027,NA,13,"K509",23.3357142857143,27.8571428571429,19.5,68,1.8,14.2,1.4,82.1,15.1,0.9,43.6,56.4,218,62.1,5.2,NA,NA
"13K527","URBAN ASSEMBLY INSTITUTE OF MATH AND SCIENCE FOR YOUNG WOMEN",NA,NA,NA,NA,NA,NA,NA,NA,NA,NA,13,"K527",24.9,25.6666666666667,23.6666666666667,62.2,1.5,13.2,5.1,79.3,11.7,2.6,0,100,469,NA,NA,40.6946201190005,-73.9886239449996
"13K553","BROOKLYN ACADEMY HIGH SCHOOL",8,435,383,379,1197,NA,NA,NA,NA,NA,13,"K553",22.4636363636364,25.3636363636364,20,NA,NA,NA,NA,NA,NA,NA,NA,NA,NA,16.4,20,NA,NA
"13K575","BEDFORD STUYVESANT PREPARATORY HIGH SCHOOL",13,398,391,394,1183,NA,NA,NA,NA,NA,13,"K575",18.1916666666667,20.9166666666667,16.0833333333333,74.6,0.7,0,0,83.6,12.5,2,35.5,64.5,152,28.8,3.8,NA,NA
"13K595","BEDFORD ACADEMY HIGH SCHOOL",89,438,443,431,1312,43,57,16,1.32558139534884,28.0701754385965,13,"K595",21.79375,25.4375,17.5625,46.7,1.1,4.1,2.7,89.4,7.1,0.3,49,51,367,92.1,3.9,40.6853812690005,-73.9542675999997
"13K605","GEORGE WESTINGHOUSE CAREER AND TECHNICAL EDUCATION HIGH SCHOOL",85,406,391,392,1189,35,35,NA,1,NA,13,"K605",26.7375,32.4375,19.875,65,1.9,14.1,2.8,79.8,15.3,1.3,75.5,24.5,927,52,11,40.6949444070005,-73.9860353239996
"13K616","BROOKLYN HIGH SCHOOL FOR LEADERSHIP AND COMMUNITY SERVICE",NA,NA,NA,NA,NA,NA,NA,NA,NA,NA,13,"K616",18.3833333333333,21.5,15.5,63.9,2.4,7.5,0.5,68.4,28.3,1.4,49.5,50.5,212,8,26.1,NA,NA
"13K670","BENJAMIN BANNEKER ACADEMY",185,471,472,448,1391,132,149,62,1.12878787878788,41.6107382550336,13,"K670",27.8947368421053,31.8421052631579,21.0526315789474,47.4,0,3,2.7,87,8.8,0.4,46.1,53.9,895,92.3,2.6,40.6956624130005,-73.9692860769997
"13K674","CITY POLYTECHNIC HIGH SCHOOL OF ENGINEERING, ARCHITECTURE, AND TECHNOLOGY",20,441,499,413,1353,NA,NA,NA,NA,NA,13,"K674",21.37,28.5,13.1,61.9,3.6,15.8,7.5,58.2,26.3,4.5,79.4,20.6,335,NA,NA,40.6949444070005,-73.9860353239996
"14K071","JUAN MOREL CAMPOS SECONDARY SCHOOL",102,365,361,359,1085,16,16,12,1,75,14,"K071",30.05,32.2857142857143,26.5,76.6,24.9,26.7,0.2,15.3,80.6,3.4,54.7,45.3,865,40,18,40.7035773610005,-73.9532373119996
"14K322","FOUNDATIONS ACADEMY",NA,NA,NA,NA,NA,42,53,NA,1.26190476190476,NA,14,"K322",20.6,22.8333333333333,18.5,78.7,5.7,28.4,1.4,66.7,29.8,1.4,56.7,43.3,141,68.3,3.3,40.6970610830004,-73.9466752049997
"14K404","ACADEMY FOR YOUNG WRITERS",68,387,357,381,1125,NA,NA,NA,NA,NA,14,"K404",22.5307692307692,26.6153846153846,17.8461538461538,65.3,2.5,12.7,0.7,63.5,32.2,3,24.2,75.7,400,76.9,3.8,NA,NA
"14K449","BROOKLYN LATIN SCHOOL, THE",72,586,584,570,1740,NA,NA,NA,NA,NA,14,"K449",23.26,28.5333333333333,17,53.3,0.4,1.1,36.8,26.7,17.9,14.5,54.9,45.1,468,92.2,0,40.7098999600005,-73.9436599349996
"14K454","GREEN SCHOOL: AN ACADEMY FOR ENVIRONMENTAL CAREERS",41,407,386,396,1189,NA,NA,NA,NA,NA,14,"K454",23.6615384615385,27.1538461538462,19.5384615384615,72.9,11.5,15.3,2,47.7,46.9,2.6,46.2,53.8,392,54.2,15.6,40.7098999600005,-73.9436599349996
"14K474","PROGRESS HIGH SCHOOL FOR PROFESSIONAL CAREERS",144,364,379,371,1114,50,66,NA,1.32,NA,14,"K474",25.8375,30.9375,18.75,84.8,16.1,13,0.7,32.6,65.4,1,48.5,51.5,1068,64.3,6.3,40.7119631130005,-73.9404343669996
"14K477","SCHOOL FOR LEGAL STUDIES",134,413,396,395,1204,24,27,NA,1.125,NA,14,"K477",27.4333333333333,32.1333333333333,21.6666666666667,65.6,5.7,13,0.9,57.7,39.3,1.7,45.8,54.2,759,58.9,16.4,40.7119631130005,-73.9404343669996
"14K478","THE HIGH SCHOOL FOR ENTERPRISE, BUSINESS AND TECHNOLOGY",142,398,421,396,1215,94,129,19,1.37234042553191,14.7286821705426,14,"K478",29.3611111111111,40.9444444444444,17.9444444444444,74.2,9.9,13.2,3.2,39.3,55.4,1.9,65.7,34.3,976,83.2,3.1,40.7119631130005,-73.9404343669996
"14K488","BROOKLYN PREPARATORY HIGH SCHOOL",42,367,373,350,1090,28,46,7,1.64285714285714,15.2173913043478,14,"K488",23.4066666666667,26.2666666666667,20,80.3,2.7,18.8,1.7,58.7,37.7,1,47.7,52.2,400,78.7,6.7,40.7150375510005,-73.9546499589997
"14K558","WILLIAMSBURG HIGH SCHOOL FOR ARCHITECTURE AND DESIGN",72,363,385,364,1112,30,48,NA,1.6,NA,14,"K558",25.3615384615385,29.0769230769231,21.2307692307692,82.6,7,17.6,1.4,38.4,57.2,2.2,72.6,27.4,500,82.5,7.2,40.7150375510005,-73.9546499589997
"14K561","WILLIAMSBURG PREPARATORY SCHOOL",113,397,410,380,1187,31,41,NA,1.32258064516129,NA,14,"K561",25.3888888888889,29.5555555555556,20.5555555555556,81,2.8,12.7,1.6,25.5,61.5,11.1,51,49,577,86.1,7.4,40.7150375510005,-73.9546499589997
"14K586","LYONS COMMUNITY SCHOOL",31,371,377,355,1103,NA,NA,NA,NA,NA,14,"K586",20.7625,25.375,16.875,78.6,14.6,22,1.1,41.7,54.6,2.1,53.7,46.3,527,NA,NA,40.7098999600005,-73.9436599349996
"14K610","AUTOMOTIVE HIGH SCHOOL",94,367,376,350,1093,NA,NA,NA,NA,NA,14,"K610",25.56,30.0666666666667,19.3333333333333,67.1,4.7,30.3,1.4,66.1,30.2,1.7,95.6,4.4,723,54.5,14.2,40.7226426400005,-73.9525830449996
"14K632","FRANCES PERKINS ACADEMY",12,382,372,368,1122,NA,NA,NA,NA,NA,14,"K632",17.3375,19.75,15,86.9,9.8,24.9,0,64.7,31.2,4,76.9,23.1,173,NA,NA,40.7226426400005,-73.9525830449996
"14K685","EL PUENTE ACADEMY FOR PEACE AND JUSTICE",28,359,335,341,1035,NA,NA,NA,NA,NA,14,"K685",22.3375,24.25,20.875,80.4,17,23.4,1.8,10.1,87.6,0.5,42.7,57.3,218,68.3,2.4,40.7057659310005,-73.9557285719996
"14K923","AUTOMOTIVE HIGH SCHOOL YABC",NA,NA,NA,NA,NA,NA,NA,NA,NA,NA,NA,NA,NA,NA,NA,NA,NA,NA,NA,NA,NA,NA,NA,NA,NA,NA,NA,NA,NA
"15K429","BROOKLYN SCHOOL FOR GLOBAL STUDIES",52,361,367,383,1111,NA,NA,NA,NA,NA,15,"K429",25.2571428571429,28.9285714285714,21,68.2,5.9,25.4,2.3,54.5,39,3.4,56.2,43.8,354,52.7,3.3,40.6854518060005,-73.9934914649997
"15K448","BROOKLYN SECONDARY SCHOOL FOR COLLABORATIVE STUDIES",76,393,399,387,1179,NA,NA,NA,NA,NA,15,"K448",23.1,26.4666666666667,19.8,57.2,4.5,29.2,4.3,34.2,48.1,12.6,59.1,40.9,692,84.2,3.9,40.6798639980005,-74.0014822579997
"15K462","SECONDARY SCHOOL FOR LAW",59,398,411,394,1203,NA,NA,NA,NA,NA,15,"K462",25.9,30.7647058823529,20,76.1,6.3,12.7,2.5,62.4,29.6,5.5,44.2,55.8,473,61.8,4.5,40.6695981750005,-73.9792555219997
"15K463","SECONDARY SCHOOL FOR JOURNALISM",58,397,391,381,1169,22,22,NA,1,NA,15,"K463",23.7785714285714,27.7142857142857,19,77,16.7,13.4,9.2,42,43.2,5.4,42.3,57.7,336,54.3,7.4,40.6695981750005,-73.9792555219997
"15K464","PARK SLOPE COLLEGIATE",72,379,416,380,1175,NA,NA,NA,NA,NA,15,"K464",26.7375,28.6875,24.4375,78,9.6,16.5,8.6,33.2,51.8,5.3,52.8,47.2,394,58.6,6.9,40.6695981750005,-73.9792555219997
"15K497","SCHOOL FOR INTERNATIONAL STUDIES",64,405,415,392,1212,30,34,NA,1.13333333333333,NA,15,"K497",23.5266666666667,27.4666666666667,19.4666666666667,68.1,14.6,15.2,6.2,40.9,38.9,14,50.8,49.2,486,63.1,10.8,40.6854518060005,-73.9934914649997
"15K519","COBBLE HILL SCHOOL OF AMERICAN STUDIES",77,398,402,385,1185,25,36,NA,1.44,NA,15,"K519",26.8823529411765,31.2352941176471,21.5294117647059,73.4,7.5,18.9,5.1,71.5,21,2.3,43.9,56.1,663,63.4,14.1,40.6845791370005,-73.9910931629997
"15K520","PACIFIC HIGH SCHOOL",9,352,341,300,993,NA,NA,NA,NA,NA,15,"K520",19.9384615384615,24,15.5384615384615,NA,NA,NA,NA,NA,NA,NA,NA,NA,NA,12.7,12.7,NA,NA
"15K529","WEST BROOKLYN COMMUNITY HIGH SCHOOL",NA,NA,NA,NA,NA,NA,NA,NA,NA,NA,15,"K529",16.17,19.4,12.9,NA,NA,NA,NA,NA,NA,NA,NA,NA,NA,10.3,9.3,NA,NA
"15K530","METROPOLITAN CORPORATE ACADEMY HIGH SCHOOL",28,368,365,368,1101,14,14,NA,1,NA,15,"K530",22.1647058823529,27.3529411764706,17.1764705882353,68.2,1.1,17.2,0.5,80.6,16.7,0,50,50,186,41.7,14.3,NA,NA
"15K656","BROOKLYN HIGH SCHOOL OF THE ARTS",141,426,421,411,1258,NA,NA,NA,NA,NA,15,"K656",26.775,31.875,18.875,59.3,0.1,7.2,1.8,76.5,19,2.2,33.9,66.1,678,72,2,40.6836539900005,-73.9804727509996
"15K667","SUNSET PARK HIGH SCHOOL",NA,NA,NA,NA,NA,NA,NA,NA,NA,NA,15,"K667",26.8555555555556,30.4444444444444,24,79.9,14.4,22.3,4.7,7.8,80.8,6.7,50.7,49.3,988,NA,NA,40.6559528440005,-74.0054973249996
"15K698","SOUTH BROOKLYN COMMUNITY HIGH SCHOOL",8,430,416,425,1271,NA,NA,NA,NA,NA,15,"K698",19.11,22.3,16.5,74,2,6,0.7,21.5,72.5,4,45,55,149,12.7,12.7,NA,NA
"16K393","FREDERICK DOUGLASS ACADEMY IV SECONDARY SCHOOL",20,355,355,358,1068,NA,NA,NA,NA,NA,16,"K393",22.3076923076923,28,16.2307692307692,71,1.4,17.1,0.9,83.6,14.1,0.5,48.7,51.3,439,77.5,1.4,40.6921337040005,-73.9315031719996
"16K455","BOYS AND GIRLS HIGH SCHOOL",131,365,370,362,1097,22,32,NA,1.45454545454545,NA,16,"K455",26.5133333333333,34.4,16.4666666666667,61.7,2.5,20.5,0.5,90,7.8,0.7,61.7,38.3,1631,38.9,19.2,40.6794330450005,-73.9324317699997
"16K498","BROOKLYN HIGH SCHOOL FOR LAW AND TECHNOLOGY",46,362,372,358,1092,49,80,NA,1.63265306122449,NA,16,"K498",26.64,29.3333333333333,22.3333333333333,74.5,4.7,20.7,1,72.8,24.9,0,51.6,48.4,405,NA,NA,40.6889255420005,-73.9210840989996
"16K594","GOTHAM PROFESSIONAL ARTS ACADEMY",36,370,372,351,1093,NA,NA,NA,NA,NA,NA,NA,NA,NA,NA,58.6,2.4,17.3,1,78.6,19.4,0.7,43.2,56.8,294,NA,NA,40.6804554730004,-73.9221960919996
"16K688","THE BROOKLYN ACADEMY OF GLOBAL FINANCE",NA,NA,NA,NA,NA,NA,NA,NA,NA,NA,16,"K688",21.475,25.5,17.25,57.4,6.3,20.8,1.9,74.2,20.8,2.5,51.6,48.4,159,NA,NA,40.6915377650005,-73.9337257819997
"17K382","ACADEMY FOR COLLEGE PREPARATION AND CAREER EXPLORATION: A COLLEGE BOARD SCHOOL",59,396,374,369,1139,64,82,7,1.28125,8.53658536585366,17,"K382",24.8133333333333,28.8,21.4,57,5,10.8,0.2,92,6.7,1.1,53.8,46.2,565,84.1,4.3,40.6494396750004,-73.9584311979996
"17K408","ACADEMY OF HOSPITALITY AND TOURISM",57,352,342,351,1045,NA,NA,NA,NA,NA,17,"K408",25.1416666666667,30.8333333333333,18.8333333333333,65.5,12.9,15.4,1.6,84.3,12.9,0.9,49.8,50.2,319,69.1,3.7,40.6494396750004,-73.9584311979996
"17K467","ERASMUS YABC",NA,NA,NA,NA,NA,NA,NA,NA,NA,NA,NA,NA,NA,NA,NA,NA,NA,NA,NA,NA,NA,NA,NA,NA,NA,NA,NA,NA,NA
"17K489","W.E.B. DUBOIS ACADEMIC HIGH SCHOOL",7,394,364,334,1092,NA,NA,NA,NA,NA,17,"K489",22.33,26.5,16.6,70.3,0.5,11.1,1,93.5,4,0.5,45.7,54.3,199,19.8,34.6,NA,NA
"17K524","INTERNATIONAL HIGH SCHOOL AT PROSPECT HEIGHTS",71,287,335,291,913,NA,NA,NA,NA,NA,17,"K524",23.7923076923077,26,20.4615384615385,80.9,91,1,28.4,29.2,27.9,14.2,59.1,40.9,401,39.3,8.3,40.6702989070005,-73.9616478759996
"17K528","THE HIGH SCHOOL FOR GLOBAL CITIZENSHIP",46,403,385,388,1176,20,34,NA,1.7,NA,17,"K528",26.39375,30.3125,20.25,68.7,5.2,13.4,1.5,89.2,7.3,1.5,50.1,49.9,343,61.5,14.4,40.6702989070005,-73.9616478759996
"17K531","SCHOOL FOR HUMAN RIGHTS, THE",35,348,381,359,1088,NA,NA,NA,NA,NA,17,"K531",30.9375,32.5625,29.125,73.2,6.2,15,0.8,88.9,8.3,1.6,51.6,48.4,386,81.7,6.7,40.6595170060005,-73.9425464989997
"17K533","SCHOOL FOR DEMOCRACY AND LEADERSHIP",38,377,404,372,1153,NA,NA,NA,NA,NA,17,"K533",23.2428571428571,26.3571428571429,19.8571428571429,68.3,3.7,14.5,0.5,89.4,8.4,1.5,52,48,406,0,8.1,40.6595170060005,-73.9425464989997
"17K537","HIGH SCHOOL FOR YOUTH AND COMMUNITY DEVELOPMENT AT ERASMUS",73,338,349,340,1027,21,37,NA,1.76190476190476,NA,17,"K537",23.02,27.5333333333333,17.7333333333333,60.9,9.1,15.8,1,87.3,9.1,1,61.6,38.4,385,56,8,40.6494396750004,-73.9584311979996
"17K539","HIGH SCHOOL FOR SERVICE & LEARNING AT ERASMUS",61,362,375,368,1105,NA,NA,NA,NA,NA,17,"K539",27.8733333333333,31.7333333333333,22.8,65.3,8.8,19.2,2.1,87,9,1.7,63.3,36.7,422,77.6,12.9,40.6494396750004,-73.9584311979996
"17K543","SCIENCE, TECHNOLOGY AND RESEARCH EARLY COLLEGE HIGH SCHOOL AT ERASMUS",69,457,462,441,1360,NA,NA,NA,NA,NA,17,"K543",23.0928571428571,28,17.6428571428571,63.3,0,2.3,3.1,83.9,9.4,1.3,53,47,521,98.7,0,40.6494396750004,-73.9584311979996
"17K544","INTERNATIONAL ARTS BUSINESS SCHOOL",54,386,391,369,1146,NA,NA,NA,NA,NA,17,"K544",22.54,27.8,16.2666666666667,69.3,7.9,17.4,0.8,86.9,10,1.3,47.9,52.1,390,49.1,6.5,NA,NA
"17K546","HIGH SCHOOL FOR PUBLIC SERVICE: HEROES OF TOMORROW",79,418,441,414,1273,106,130,13,1.22641509433962,10,17,"K546",23.1166666666667,26.1111111111111,19,70.3,0.5,4.1,3.6,82.5,12.2,0.7,24.9,75.1,417,94.6,0,40.6595170060005,-73.9425464989997
"17K547","BROOKLYN ACADEMY OF SCIENCE AND THE ENVIRONMENT",63,388,382,373,1143,49,59,NA,1.20408163265306,NA,17,"K547",21.3857142857143,25.1428571428571,16.3571428571429,80.9,6.8,11.9,4,79.6,14.2,1.5,54.4,45.6,471,69.1,5.5,40.6702989070005,-73.9616478759996
"17K548","BROOKLYN SCHOOL FOR MUSIC & THEATRE",48,385,393,373,1151,37,41,9,1.10810810810811,21.9512195121951,17,"K548",26.0875,30.0625,21.125,60.5,0.5,12.1,1,82.8,15.3,1,32.8,67.2,412,73.9,2.3,40.6702989070005,-73.9616478759996
"17K568","BROWNSVILLE ACADEMY HIGH SCHOOL",16,372,356,335,1063,NA,NA,NA,NA,NA,17,"K568",17.7545454545455,22.6363636363636,13.7272727272727,NA,NA,NA,NA,NA,NA,NA,NA,NA,NA,12,20,NA,NA
"17K590","MEDGAR EVERS COLLEGE PREPARATORY SCHOOL",165,476,481,479,1436,272,507,86,1.86397058823529,16.9625246548323,17,"K590",27.5764705882353,36.1764705882353,18.1176470588235,59.1,0,0.5,0.9,95.7,2.8,0,41.8,58.2,1104,93.6,3.8,40.6671620820005,-73.9508579549996
"17K600","CLARA BARTON HIGH SCHOOL",259,425,413,413,1251,135,211,63,1.56296296296296,29.8578199052133,17,"K600",29.25,35.0555555555556,21.2777777777778,73,8.3,12.7,1.8,91.2,5.8,0.7,23.8,76.2,1608,60.7,12.9,40.6702705570005,-73.9616548239997
"17K625","PAUL ROBESON HIGH SCHOOL",53,365,363,355,1083,50,51,NA,1.02,NA,17,"K625",24.88125,28.8125,19.5625,77.9,3.4,25.5,0.9,87.1,9.5,1.5,54.9,45.1,326,46.6,12.7,NA,NA
"17K751","ACADEMY FOR HEALTH CAREERS",NA,NA,NA,NA,NA,NA,NA,NA,NA,NA,NA,NA,NA,NA,NA,87.7,8,15.2,3.6,81.2,13.8,1.4,27.5,72.5,138,NA,NA,40.6754023070005,-73.9388811759996
"18K563","IT TAKES A VILLAGE ACADEMY",56,313,320,330,963,NA,NA,NA,NA,NA,18,"K563",20.8315789473684,27.5789473684211,15.6315789473684,76.5,30.4,11.5,1.8,92.9,4.5,0.5,49,51,382,NA,NA,40.6486636630005,-73.9218987619997
"18K566","BROOKLYN GENERATION SCHOOL",29,374,377,394,1145,NA,NA,NA,NA,NA,18,"K566",19.9333333333333,22.5833333333333,17.4166666666667,60.5,5.7,19.6,1.5,88.8,8.5,0.9,61,39,331,NA,NA,40.6326274300005,-73.9177979889997
"18K567","BROOKLYN THEATRE ARTS HIGH SCHOOL",54,383,358,377,1118,NA,NA,NA,NA,NA,18,"K567",26.0666666666667,28.2,23.1333333333333,67.8,5,18.6,0.5,84.3,12.8,2.1,36.1,63.9,382,NA,NA,40.6326274300005,-73.9177979889997
"18K569","KURT HAHN EXPEDITIONARY LEARNING SCHOOL",43,368,378,346,1092,NA,NA,NA,NA,NA,18,"K569",26.125,28.5,23.0625,62.6,9.5,20.1,0,88.1,8.8,1.7,64.3,35.7,294,NA,NA,40.6486636630005,-73.9218987619997
"18K576","VICTORY COLLEGIATE HIGH SCHOOL",63,387,377,379,1143,NA,NA,NA,NA,NA,18,"K576",25.0111111111111,28.2222222222222,22.3333333333333,64.1,5.2,16.6,0.3,93.5,5.8,0,48.9,51.1,325,NA,NA,40.6326274300005,-73.9177979889997
"18K578","BROOKLYN BRIDGE ACADEMY",17,384,362,351,1097,NA,NA,NA,NA,NA,18,"K578",16.9375,21,13.5,65,2.8,11.1,0.9,88,9.2,0.9,58.5,41.5,217,14.9,16.1,NA,NA
"18K589","ARTS & MEDIA PREPARATORY ACADEMY",48,361,360,359,1080,NA,NA,NA,NA,NA,18,"K589",20.05,21.7857142857143,18.2857142857143,54.4,3.4,17.4,0.7,89.4,9.6,0,47.4,52.6,293,NA,NA,40.6584570300005,-73.9290331739996
"18K617","HIGH SCHOOL FOR INNOVATION IN ADVERTISING AND MEDIA",37,404,393,386,1183,NA,NA,NA,NA,NA,18,"K617",19.625,25.0833333333333,14.5833333333333,61.3,8.1,18.1,1.3,85.8,10.6,1.3,66.5,33.5,310,NA,NA,40.6418442680004,-73.8986872909996
"18K629","CULTURAL ACADEMY FOR THE ARTS AND SCIENCES",33,393,395,381,1169,NA,NA,NA,NA,NA,18,"K629",18.3727272727273,21.4545454545455,15.4545454545455,71.6,7.7,18.4,1.3,86.6,11.4,0.7,51.5,48.5,299,NA,NA,40.6486636630005,-73.9218987619997
"18K633","HIGH SCHOOL FOR MEDICAL PROFESSIONS",75,386,380,393,1159,NA,NA,NA,NA,NA,18,"K633",26.95,30.8125,23.0625,75.2,3.3,10.4,1.7,85,12.4,0.2,21.5,78.5,460,NA,NA,40.6418442680004,-73.8986872909996
"18K635","OLYMPUS ACADEMY",7,400,370,370,1140,NA,NA,NA,NA,NA,18,"K635",14.9,17.4,13,51.1,1.5,9.4,1,86.2,11.3,1,50.2,49.8,203,16.8,8.9,NA,NA
"18K637","ACADEMY FOR CONSERVATION AND THE ENVIRONMENT",35,363,381,367,1111,NA,NA,NA,NA,NA,18,"K637",19.6,22.3333333333333,17,54.5,6.9,16.8,2.2,83.9,12,1.5,54.7,45.3,274,NA,NA,40.6326274300005,-73.9177979889997
"18K642","URBAN ACTION ACADEMY",40,376,385,374,1135,NA,NA,NA,NA,NA,18,"K642",20.5625,23.375,17,76.4,11.1,12.5,2.3,82.3,10.5,3.9,62.6,37.4,305,NA,NA,40.6418442680004,-73.8986872909996
"18K673","EAST BROOKLYN COMMUNITY HIGH SCHOOL",12,410,403,378,1191,NA,NA,NA,NA,NA,18,"K673",18.8,18.8,18.8,56.7,0.5,8.9,1,88.7,9.4,0.5,52.2,47.8,203,4.3,8.7,NA,NA
"19K409","EAST NEW YORK FAMILY ACADEMY",54,416,432,394,1242,NA,NA,NA,NA,NA,19,"K409",19.1210526315789,20.8947368421053,17.2631578947368,72.2,0.5,2.1,0.5,67.2,30.3,1.4,43.2,56.8,433,79.1,3.3,40.6606370240005,-73.8863416499996
"19K420","FRANKLIN K. LANE HIGH SCHOOL",NA,NA,NA,NA,NA,10,10,NA,1,NA,19,"K420",19.5428571428571,22.3571428571429,17.1428571428571,64.3,38.4,12.5,4.5,11.6,82.1,1.8,51.8,48.2,112,38.3,23.5,NA,NA
"19K431","THOMAS JEFFERSON YABC",NA,NA,NA,NA,NA,NA,NA,NA,NA,NA,NA,NA,NA,NA,NA,NA,NA,NA,NA,NA,NA,NA,NA,NA,NA,NA,NA,NA,NA
"19K502","FDNY HIGH SCHOOL FOR FIRE AND LIFE SAFETY",37,341,349,333,1023,NA,NA,NA,NA,NA,19,"K502",23.52,28.2666666666667,18.3333333333333,70.9,5,21,1,73.8,23.4,1.6,81.1,18.9,381,55.2,23,40.6675531110005,-73.8948005369996
"19K504","HIGH SCHOOL FOR CIVIL RIGHTS",47,363,349,342,1054,12,18,NA,1.5,NA,19,"K504",26.1666666666667,30.0666666666667,22.4,60.5,9.7,16.2,2,74.3,22.2,1,54.4,45.6,401,59.5,10.8,40.6675531110005,-73.8948005369996
"19K507","PERFORMING ARTS AND TECHNOLOGY HIGH SCHOOL",61,380,386,383,1149,NA,NA,NA,NA,NA,19,"K507",24.6142857142857,28.9285714285714,17.5714285714286,76,4.9,19.6,0.7,81.5,17.4,0,51.4,48.6,453,68.5,8.1,40.6675531110005,-73.8948005369996
"19K510","WORLD ACADEMY FOR TOTAL COMMUNITY HEALTH HIGH SCHOOL",68,371,365,370,1106,22,22,NA,1,NA,19,"K510",23.99375,29.125,19.0625,72.6,4.2,14.7,2.1,81.1,14.2,1.3,36.8,63.2,380,24.2,8.4,40.6675531110005,-73.8948005369996
"19K583","MULTICULTURAL HIGH SCHOOL",29,279,322,286,887,44,44,39,1,88.6363636363636,19,"K583",23.8083333333333,27.6666666666667,19.5,73.4,94.6,1,0,0.2,99.8,0,49.8,50.2,406,NA,NA,40.6911439620005,-73.8684260569996
"19K615","TRANSIT TECH CAREER AND TECHNICAL EDUCATION HIGH SCHOOL",182,395,418,380,1193,138,164,18,1.18840579710145,10.9756097560976,19,"K615",26.9714285714286,31.4285714285714,21.1428571428571,62.3,2.4,14.2,4.4,70.5,23.2,1.5,84.1,15.9,1317,65.3,7.2,40.6782307310005,-73.8759730119996
"19K618","ACADEMY OF INNOVATIVE TECHNOLOGY",60,371,371,354,1096,NA,NA,NA,NA,NA,19,"K618",23.3181818181818,27.7272727272727,19.0909090909091,75.8,12.1,19.3,7.4,38.4,50.2,3,70.3,29.7,404,NA,NA,40.6911439620005,-73.8684260569996
"19K639","BROOKLYN LAB SCHOOL",57,360,385,363,1108,NA,NA,NA,NA,NA,19,"K639",25.2923076923077,26.7692307692308,23.3076923076923,76,15.4,19.4,1.5,30.7,65,1.3,58.4,41.6,397,NA,NA,40.6911439620005,-73.8684260569996
"19K659","CYPRESS HILLS COLLEGIATE PREPARATORY SCHOOL",51,376,385,368,1129,21,21,10,1,47.6190476190476,19,"K659",23.8470588235294,26.1764705882353,22.0588235294118,67.1,16.2,11.7,8.2,16.9,73.2,1.4,47.8,52.2,437,57.5,7.5,40.6911439620005,-73.8684260569996
"19K660","W. H. MAXWELL CAREER AND TECHNICAL EDUCATION HIGH SCHOOL",74,370,369,363,1102,46,46,NA,1,NA,19,"K660",25.2785714285714,31.5714285714286,17.0714285714286,73.3,5.3,26.6,0.5,71.9,25.4,0.7,29.8,70.2,590,43.4,20.4,40.6742242140004,-73.8964535209997
"19K683","THE SCHOOL FOR CLASSICS: AN ACADEMY OF THINKERS, WRITERS AND PERFORMERS",38,383,400,374,1157,NA,NA,NA,NA,NA,19,"K683",25.8416666666667,29.1666666666667,22.25,81.9,9,17.7,10,54.3,34.7,0.6,37.6,62.4,311,NA,NA,40.6706832500005,-73.8742174799996
"20K445","NEW UTRECHT HIGH SCHOOL",456,402,471,399,1272,174,271,95,1.55747126436782,35.0553505535055,20,"K445",27.8842105263158,34.7894736842105,16.4736842105263,59,23,15.6,35.9,5.5,28,30.5,59.3,40.7,3276,64.3,5.8,40.6134244940005,-74.0036537659997
"20K485","HIGH SCHOOL OF TELECOMMUNICATION ARTS AND TECHNOLOGY",238,425,474,424,1323,251,413,123,1.64541832669323,29.7820823244552,20,"K485",30.4333333333333,34.2777777777778,23.0555555555556,67.3,4.9,19.4,19.2,9.5,54.1,16.8,53.5,46.5,1280,75.8,6.1,40.6372457160005,-74.0238164729997
"20K490","FORT HAMILTON HIGH SCHOOL",694,417,478,411,1306,357,576,331,1.61344537815126,57.4652777777778,20,"K490",28.31,32.9,17.7,45.9,21.2,12.8,30.3,5,30.2,34.2,53.4,46.6,4275,65.9,14.2,40.6279133730005,-74.0399523379996
"20K505","FRANKLIN DELANO ROOSEVELT HIGH SCHOOL",385,383,486,375,1244,228,340,186,1.49122807017544,54.7058823529412,20,"K505",27.9142857142857,31.7619047619048,20.4285714285714,74.3,39.4,10.8,44.2,9.4,27.3,18.6,58.4,41.6,3108,52.7,22.5,40.6202633730005,-73.9820109999997
"20K609","THE URBAN ASSEMBLY SCHOOL FOR CRIMINAL JUSTICE",NA,NA,NA,NA,NA,NA,NA,NA,NA,NA,20,"K609",12.575,15,10.75,82.7,15.5,17.1,35,33.7,21.9,9.1,0,100,374,NA,NA,40.6349080950005,-73.9815190769996
"20K658","FRANKLIN DELANO ROOSEVELT YABC",18,338,477,316,1131,NA,NA,NA,NA,NA,NA,NA,NA,NA,NA,NA,NA,NA,NA,NA,NA,NA,NA,NA,NA,NA,NA,NA,NA
"21K337","INTERNATIONAL HIGH SCHOOL AT LAFAYETTE",54,326,386,314,1026,NA,NA,NA,NA,NA,21,"K337",17.2066666666667,18.8666666666667,15.9333333333333,73.8,89.2,0.3,42,14,21,22.7,58.9,41.1,343,43.7,9.9,40.5935938110005,-73.9847292319997
"21K344","RACHEL CARSON HIGH SCHOOL FOR COASTAL STUDIES",54,402,427,408,1237,34,64,NA,1.88235294117647,NA,21,"K344",25.9235294117647,30.3529411764706,19.9411764705882,70.4,11,16,12.3,24.1,25.8,37.6,53.6,46.4,481,62.8,7.1,40.5821161500005,-73.9728944919996
"21K348","HIGH SCHOOL OF SPORTS MANAGEMENT",39,388,398,378,1164,10,10,NA,1,NA,21,"K348",26.3928571428571,28.2142857142857,24.6428571428571,69.2,2.4,14.6,2.7,68.4,23,5.9,88.9,11.1,370,75.4,9.2,40.5935938110005,-73.9847292319997
"21K410","ABRAHAM LINCOLN HIGH SCHOOL",475,396,437,393,1226,133,193,18,1.45112781954887,9.32642487046632,21,"K410",27.6684210526316,34.1578947368421,17.3157894736842,53.3,16.7,11.5,19.3,35.1,20.1,25.1,56.4,43.6,2595,57.1,16,40.5823083630005,-73.9674657469997
"21K412/21K411","ABRAHAM LINCOLN YABC/LEARNING TO WORK GED AT ABRAHAM LINCOLN",NA,NA,NA,NA,NA,NA,NA,NA,NA,NA,NA,NA,NA,NA,NA,NA,NA,NA,NA,NA,NA,NA,NA,NA,NA,NA,NA,NA,NA
"21K468","KINGSBOROUGH EARLY COLLEGE SCHOOL",NA,NA,NA,NA,NA,NA,NA,NA,NA,NA,21,"K468",24.63,27.1,22.4,70,2.8,15.7,7.2,25,22.7,44.7,57.8,42.2,472,NA,NA,40.5935938110005,-73.9847292319997
"21K525","EDWARD R. MURROW HIGH SCHOOL",727,468,496,467,1431,397,577,307,1.45340050377834,53.2062391681109,21,"K525",30.315,34.4,19.8,28.5,9.1,14.1,27.1,24.1,17.6,30.8,42.4,57.6,4022,74.8,5.9,40.6205043580005,-73.9592339329997
"21K540","JOHN DEWEY HIGH SCHOOL",448,404,468,390,1262,232,370,154,1.5948275862069,41.6216216216216,21,"K540",28.37,35.1,18.4,58.7,19.6,8.7,39.1,30.6,19.1,10.8,51.5,48.5,2168,57.5,12.6,40.5892380980005,-73.9817465239997
"21K559","LIFE ACADEMY HIGH SCHOOL FOR FILM AND MUSIC",40,384,375,365,1124,NA,NA,NA,NA,NA,21,"K559",24.25,24.8333333333333,23.6666666666667,72,4.8,20.3,4.8,44.6,29.9,20.3,51,49,251,NA,NA,40.5935938110005,-73.9847292319997
"21K572","EXPEDITIONARY LEARNING SCHOOL FOR COMMUNITY LEADERS",40,353,370,356,1079,NA,NA,NA,NA,NA,21,"K572",21.1571428571429,23.0714285714286,18.5,64.4,21.7,16.4,19.5,19.5,41.2,19.5,51.3,48.7,226,NA,NA,40.5935938110005,-73.9847292319997
"21K620","WILLIAM E. GRADY CAREER AND TECHNICAL EDUCATION HIGH SCHOOL",95,394,414,376,1184,NA,NA,NA,NA,NA,21,"K620",25.6294117647059,30.5882352941176,19.7647058823529,74.3,3.1,22.7,3.2,74.9,14,6.9,78,22,956,42.3,21.4,40.5825480380005,-73.9637162209996
"21K690","BROOKLYN STUDIO SECONDARY SCHOOL",119,429,449,435,1313,39,43,13,1.1025641025641,30.2325581395349,21,"K690",26.5842105263158,31.0526315789474,21.4736842105263,49.9,8.4,18.7,12.8,7.2,23.1,56.5,50.1,49.9,876,67.9,15,40.6048770000005,-73.9944171539997
"21K728","LIBERATION DIPLOMA PLUS",10,411,369,373,1153,NA,NA,NA,NA,NA,21,"K728",15.4,17,13.7142857142857,82.3,1.6,6.3,2.6,44,37.7,15.2,41.9,58.1,191,26.2,12.3,NA,NA
"22K405","MIDWOOD HIGH SCHOOL",824,478,519,476,1473,745,1223,758,1.64161073825503,61.9787408013083,22,"K405",31.9631578947368,34.4210526315789,22.4210526315789,41.2,3.7,5.2,31.7,35.2,11.7,21.2,45.3,54.7,3842,86.8,1.6,40.6333354940005,-73.9529160639996
"22K425","JAMES MADISON HIGH SCHOOL",518,436,475,439,1350,323,463,188,1.43343653250774,40.6047516198704,22,"K425",30.4944444444444,33.5555555555556,22.5,58.3,13.2,12.4,20.8,17.9,14.5,46.4,54.4,45.6,3076,66.3,13.8,40.6097584810005,-73.9484518369996
"22K495","SHEEPSHEAD BAY HIGH SCHOOL",236,383,392,370,1145,37,59,27,1.59459459459459,45.7627118644068,22,"K495",26.14,31.75,17.25,53.1,21.7,13.1,12,61.8,15.8,10.1,53.2,46.8,1928,57.9,21.8,NA,NA
"22K535","LEON M. GOLDSTEIN HIGH SCHOOL FOR THE SCIENCES",259,524,561,542,1627,367,575,382,1.56675749318801,66.4347826086957,22,"K535",31.5823529411765,33.7058823529412,26.7058823529412,29,0.5,7.3,13.5,9.4,10.8,65.6,41.2,58.8,1022,96.4,2.4,40.5808471360005,-73.9360885689997
"22K555","BROOKLYN COLLEGE ACADEMY",131,456,456,440,1352,NA,NA,NA,NA,NA,22,"K555",26.2705882352941,32.1764705882353,18.4117647058824,48.4,0.2,1.7,5.9,77.9,12.4,2.7,36.3,63.7,630,95.8,0,40.6492006270005,-73.9716946209997
"23K493","BROOKLYN COLLEGIATE: A COLLEGE BOARD SCHOOL",60,389,409,387,1185,15,16,NA,1.06666666666667,NA,23,"K493",24.7928571428571,30.3571428571429,18.2142857142857,74.5,1.6,12.1,1.9,88.1,8.3,0.5,50.7,49.3,580,62.9,7.1,40.6741373830005,-73.9134944909997
"23K514","FREDERICK DOUGLASS ACADEMY VII HIGH SCHOOL",55,361,371,359,1091,39,40,NA,1.02564102564103,NA,23,"K514",23,25.8125,19.625,66.9,1.4,20.3,0.8,88.5,10.4,0,48.5,51.5,365,70.7,6.5,40.6658109120005,-73.9116996449997
"23K643","BROOKLYN DEMOCRACY ACADEMY",11,349,338,331,1018,NA,NA,NA,NA,NA,NA,NA,NA,NA,NA,62.3,2.4,16.1,1.5,85.9,11.7,0.5,47.8,52.2,205,26.8,11.3,NA,NA
"23K646","ASPIRATIONS DIPLOMA PLUS HIGH SCHOOL",7,311,371,311,993,NA,NA,NA,NA,NA,23,"K646",18.9555555555556,21.1111111111111,16.5555555555556,72.5,2.2,7.3,1.5,77.8,20,0.4,46.2,53.8,275,13.7,29.1,NA,NA
"23K647","METROPOLITAN DIPLOMA PLUS HIGH SCHOOL",17,350,346,332,1028,NA,NA,NA,NA,NA,23,"K647",21.35,23.125,19.125,72.1,1.1,8.8,0,86.2,13.8,0,48.6,51.4,181,22.7,16.5,NA,NA
"23K697","TEACHERS PREPARATORY HIGH SCHOOL",69,392,416,388,1196,33,37,NA,1.12121212121212,NA,23,"K697",25.10625,30.8125,18.125,69.8,1.8,11,0.7,84.8,13.1,1.2,34.1,65.9,566,72.7,3,40.6658109120005,-73.9116996449997
"24Q264","ACADEMY OF FINANCE AND ENTERPRISE",89,405,454,421,1280,95,137,40,1.44210526315789,29.1970802919708,24,"Q264",24.3058823529412,30.5294117647059,18.8823529411765,62.8,7.9,9.8,17.9,9.8,56.4,15.2,49.3,50.7,420,90,2.2,40.7450935190005,-73.9368138979996
"24Q267","HIGH SCHOOL OF APPLIED COMMUNICATION",39,406,413,400,1219,46,48,NA,1.04347826086957,NA,24,"Q267",22.0764705882353,27.1764705882353,17.2352941176471,66.9,10.3,16.2,13.9,12.9,57.2,16,43.8,56.2,388,80.2,3,40.7450935190005,-73.9368138979996
"24Q293","CIVIC LEADERSHIP ACADEMY",69,404,429,407,1240,NA,NA,NA,NA,NA,24,"Q293",23.35,27.3571428571429,19.1428571428571,71,9.1,18.5,7.8,9.1,79.3,3.3,44.5,55.5,449,NA,NA,40.7433028730005,-73.8705749769996
"24Q296","PAN AMERICAN INTERNATIONAL HIGH SCHOOL",55,317,323,311,951,NA,NA,NA,NA,NA,24,"Q296",19.7266666666667,23.9333333333333,16.2666666666667,78.3,91.3,0.8,0,0,100,0,47.8,52.2,366,NA,NA,40.7433028730005,-73.8705749769996
"24Q299","BARD HIGH SCHOOL EARLY COLLEGE II",155,545,568,550,1663,NA,NA,NA,NA,NA,24,"Q299",20.4714285714286,24,16.0714285714286,39.2,0.3,0,32,16.2,21.2,30.3,39.3,60.7,631,96,0,40.7450935190005,-73.9368138979996
"24Q455","NEWTOWN HIGH SCHOOL",320,383,440,380,1203,174,200,117,1.14942528735632,58.5,24,"Q455",27.3111111111111,32.8888888888889,19.3888888888889,56.2,30,10.3,24.6,9.3,60.3,5.3,57.5,42.5,2572,49.4,16.2,40.7412052000005,-73.8747298839996
"24Q457","YOUNG ADULT BOROUGH CENTER AT ARTS AND BUSINESS HS",NA,NA,NA,NA,NA,NA,NA,NA,NA,NA,NA,NA,NA,NA,NA,NA,NA,NA,NA,NA,NA,NA,NA,NA,NA,NA,NA,NA,NA
"24Q485","GROVER CLEVELAND HIGH SCHOOL",241,395,420,396,1211,200,274,112,1.37,40.8759124087591,24,"Q485",26.985,33.1,20.2,41.4,21.6,12.7,9.1,4.4,63.5,22.7,55,45,2069,54.2,17.1,40.7112221950005,-73.9086521299997
"24Q520","MIDDLE COLLEGE HIGH SCHOOL AT LAGUARDIA COMMUNITY COLLEGE",58,399,393,385,1177,NA,NA,NA,NA,NA,24,"Q520",18.5,20.7692307692308,16.1538461538462,58.9,0.2,13.1,7.8,9.5,71.4,11.3,52.9,47.1,497,70.2,10.6,40.7441495360005,-73.9336267409997
"24Q530","INTERNATIONAL HIGH SCHOOL AT LAGUARDIA COMMUNITY COLLEGE",69,326,409,329,1064,NA,NA,NA,NA,NA,24,"Q530",17.0076923076923,20.4615384615385,14.3076923076923,75.7,76.5,0,43,2,44,10.3,46,54,493,48.4,8.1,40.7441495360005,-73.9336267409997
"24Q550","HIGH SCHOOL FOR ARTS AND BUSINESS",138,391,403,380,1174,198,320,73,1.61616161616162,22.8125,24,"Q550",27.4055555555556,31.7777777777778,19.7777777777778,69.6,13.3,12.2,9.1,8.3,79.2,3,43.1,56.9,828,67.4,9.1,40.7374181700005,-73.8533057299996
"24Q560","ROBERT F. WAGNER, JR. SECONDARY SCHOOL FOR ARTS AND TECHNOLOGY",80,443,447,440,1330,NA,NA,NA,NA,NA,24,"Q560",26.5,28.7058823529412,24.4117647058824,60.5,3.8,12.3,20.8,6.2,62.4,10.5,46.6,53.4,601,62.1,4.2,40.7422635150004,-73.9368761209997
"24Q600","QUEENS VOCATIONAL AND TECHNICAL HIGH SCHOOL",155,417,447,406,1270,27,27,20,1,74.0740740740741,24,"Q600",28.45625,33.625,20.0625,71.9,6.4,13.7,10.2,6.9,74.2,8.7,60.3,39.7,1368,70.8,10.7,40.7421886940005,-73.9282432919997
"24Q610","AVIATION CAREER & TECHNICAL EDUCATION HIGH SCHOOL",396,445,496,423,1364,130,140,61,1.07692307692308,43.5714285714286,24,"Q610",28.1611111111111,32.9444444444444,19.4444444444444,61.2,3.2,5.3,27.1,6.8,55.3,10.1,85.3,14.7,2201,74.5,1.4,40.7435936440005,-73.9290778649997
"24Q744","VOYAGES PREPARATORY",NA,NA,NA,NA,NA,NA,NA,NA,NA,NA,NA,NA,NA,NA,NA,59.1,3.6,6,8.1,23,61.7,6.9,50.4,49.6,248,11.8,11.8,NA,NA
"25Q252","QUEENS SCHOOL OF INQUIRY, THE",58,455,498,443,1396,NA,NA,NA,NA,NA,25,"Q252",24.5866666666667,28.3333333333333,21.1333333333333,41.3,2.7,11.8,40.2,17,24.2,18.1,46.7,53.3,587,NA,NA,40.7245229840005,-73.8094279899997
"25Q263","FLUSHING INTERNATIONAL HIGH SCHOOL",45,314,417,318,1049,NA,NA,NA,NA,NA,25,"Q263",19.1923076923077,27.0769230769231,14.8461538461538,84.1,88.6,0.7,64.5,1.2,32.7,1.7,57.3,42.7,422,59.3,10.5,40.7604141700005,-73.8183762779997
"25Q281","EASTsWEST SCHOOL OF INTERNATIONAL STUDIES",59,416,463,392,1271,NA,NA,NA,NA,NA,25,"Q281",28.9333333333333,32.4666666666667,25.6666666666667,53.3,13.6,9.4,62.7,14.8,17.9,3.4,54.1,45.9,616,85.3,0,40.7493028050005,-73.8218081059996
"25Q285","WORLD JOURNALISM PREPARATORY: A COLLEGE BOARD SCHOOL",63,471,489,481,1441,65,87,18,1.33846153846154,20.6896551724138,25,"Q285",25.0473684210526,28.0526315789474,21.9473684210526,33.5,0.8,17.8,19.3,8.4,20.3,51.6,42.2,57.8,595,86.6,1.2,40.7651232730005,-73.7900596759997
"25Q425","JOHN BOWNE HIGH SCHOOL",558,397,451,395,1243,176,229,116,1.30113636363636,50.6550218340611,25,"Q425",29.385,34,18.4,68.2,24.7,9.8,34.3,19.2,40.7,5.2,49.2,50.8,3660,56.1,20.6,40.7386972030005,-73.8247948209997
"25Q460","FLUSHING HIGH SCHOOL",347,393,441,382,1216,324,424,136,1.30864197530864,32.0754716981132,25,"Q460",30.0263157894737,34.5263157894737,19.6842105263158,67.6,20,11.7,19.9,26.5,49.8,3.2,55.8,44.2,3113,56.5,20.7,40.7652434710005,-73.8278552819996
"25Q467","FLUSHING YABC",9,378,373,344,1095,NA,NA,NA,NA,NA,NA,NA,NA,NA,NA,NA,NA,NA,NA,NA,NA,NA,NA,NA,NA,NA,NA,NA,NA
"25Q525","TOWNSEND HARRIS HIGH SCHOOL",278,621,651,638,1910,613,796,625,1.29853181076672,78.5175879396985,25,"Q525",29.3625,33.125,22.75,29.2,0,0.2,55.5,5.9,12.9,24.6,28.9,71.1,1140,100,0,40.7344084100005,-73.8214174829996
"25Q540","QUEENS ACADEMY HIGH SCHOOL",17,398,382,388,1168,NA,NA,NA,NA,NA,25,"Q540",24.21,31.1,16.3,NA,NA,NA,NA,NA,NA,NA,NA,NA,NA,22,10.6,NA,NA
"25Q670","ROBERT F. KENNEDY COMMUNITY HIGH SCHOOL",99,431,458,441,1330,77,112,43,1.45454545454545,38.3928571428571,25,"Q670",30.3166666666667,33.3888888888889,25.2777777777778,46.4,7.5,18.4,28.4,11.5,35.4,24.5,53.8,46.2,721,56.6,8.2,40.7256031610005,-73.8107211469996
"25Q792","NORTH QUEENS COMMUNITY HIGH SCHOOL",7,379,421,377,1177,NA,NA,NA,NA,NA,25,"Q792",19.86875,23.75,15.875,54.1,1.5,11.6,10.1,42.4,33.3,14.1,45.5,54.5,198,19.4,11.3,NA,NA
"26Q415","BENJAMIN N. CARDOZO HIGH SCHOOL",888,480,545,489,1514,676,1145,796,1.69378698224852,69.5196506550218,26,"Q415",31.1052631578947,33.8947368421053,19.0526315789474,37.3,6.1,11.5,45.7,18.4,18.6,16.8,47.4,52.6,3912,80.1,4.5,40.7523924240005,-73.7560833579997
"26Q430","FRANCIS LEWIS HIGH SCHOOL",934,468,539,467,1474,697,1033,583,1.48206599713056,56.4375605033882,26,"Q430",30.2368421052632,34.2631578947368,17.3684210526316,51.6,13.2,12.3,51.9,8.3,24.1,15.5,49.2,50.8,4152,74.2,5.1,40.7405557140005,-73.7928481459996
"26Q435","MARTIN VAN BUREN HIGH SCHOOL",334,391,397,384,1172,71,101,15,1.42253521126761,14.8514851485149,26,"Q435",27.125,32.95,17,38.2,9.9,11.5,24.1,56.4,15.1,2.9,54.3,45.7,2390,62.8,8.5,40.7328171090005,-73.7396504129997
"26Q495","BAYSIDE HIGH SCHOOL",708,462,523,464,1449,480,686,413,1.42916666666667,60.2040816326531,26,"Q495",32.4052631578947,34.0526315789474,25.1578947368421,52.4,5.7,10.6,45.2,12.7,22.3,19.6,49.4,50.6,3308,80.2,6.4,40.7718672420005,-73.7803869519997
"26Q566","QUEENS HIGH SCHOOL OF TEACHING, LIBERAL ARTS AND THE SCIENCES",175,425,434,420,1279,NA,NA,NA,NA,NA,26,"Q566",28.9833333333333,32.6111111111111,23,39.5,2.5,13.9,23.8,46.3,16.8,12.3,45.8,54.2,1196,83.6,3.2,40.7449043610005,-73.7269096419997
"27Q260","FREDERICK DOUGLASS ACADEMY VI HIGH SCHOOL",87,387,385,373,1145,NA,NA,NA,NA,NA,27,"Q260",24.5642857142857,29,18.1428571428571,57.1,4,13.9,3.8,67,27,1.3,52.6,47.4,445,71.6,4.2,40.6019893360005,-73.7628343229996
"27Q262","CHANNEL VIEW SCHOOL FOR RESEARCH",74,432,419,401,1252,43,69,18,1.6046511627907,26.0869565217391,27,"Q262",26.3823529411765,30.0588235294118,21.4705882352941,58,1.3,10.5,5.7,55.2,27.5,11.2,51.1,48.9,636,94.4,0,40.5860071870004,-73.8230894439996
"27Q302","QUEENS HIGH SCHOOL FOR INFORMATION, RESEARCH, AND TECHNOLOGY",44,391,401,364,1156,NA,NA,NA,NA,NA,27,"Q302",23.2769230769231,27.7692307692308,18.2307692307692,75.7,10.6,16.1,4.2,60.3,30,4.5,54.5,45.5,310,NA,NA,40.6019893360005,-73.7628343229996
"27Q308","ROBERT H. GODDARD HIGH SCHOOL OF COMMUNICATION ARTS AND TECHNOLOGY",93,423,426,416,1265,NA,NA,NA,NA,NA,27,"Q308",30.1166666666667,32.3888888888889,28.1666666666667,66.4,3.6,15.9,26.8,7.6,42.6,21.8,48.1,51.9,578,NA,NA,40.6717694780005,-73.8449777389996
"27Q309","ACADEMY OF MEDICAL TECHNOLOGY: A COLLEGE BOARD SCHOOL",36,367,379,348,1094,NA,NA,NA,NA,NA,27,"Q309",23.3272727272727,26.7272727272727,19.4545454545455,64.2,10.6,14,9.1,52.6,34.2,3.2,43.8,56.2,527,NA,NA,40.6019893360005,-73.7628343229996
"27Q323","SCHOLARS' ACADEMY",89,499,537,496,1532,55,121,57,2.2,47.1074380165289,27,"Q323",25.9384615384615,30.4615384615385,19.6923076923077,35.9,0,1,22,19.2,15.9,41.6,43.9,56.1,1062,NA,NA,40.5841313740005,-73.8256812119997
"27Q400","AUGUST MARTIN HIGH SCHOOL",101,377,371,360,1108,19,28,NA,1.47368421052632,NA,27,"Q400",28.7777777777778,33.6666666666667,22.2777777777778,65.1,4.3,16.5,6.2,79.9,11.5,1.7,55.2,44.8,1029,53.5,16.7,40.6755268090005,-73.7834325129996
"27Q410","BEACH CHANNEL HIGH SCHOOL",78,384,396,354,1134,NA,NA,NA,NA,NA,27,"Q410",29.4157894736842,32.2105263157895,24.1578947368421,65.5,11.3,21.8,2,46.8,44.3,6.3,57.5,42.5,684,48.6,15.7,NA,NA
"27Q475","RICHMOND HILL HIGH SCHOOL",404,382,404,368,1154,142,170,55,1.19718309859155,32.3529411764706,27,"Q475",29.95,33.3888888888889,21.8333333333333,61.8,17.4,13.7,32.9,16.8,46.4,3.2,53,47,2585,52,19.8,40.6956492220005,-73.8335848049996
"27Q480","JOHN ADAMS HIGH SCHOOL",403,391,409,392,1192,140,168,33,1.2,19.6428571428571,27,"Q480",27.3157894736842,34.6842105263158,17.8947368421053,75.5,16,12.1,27.5,27.7,37.1,3.6,54.5,45.5,3386,56.9,17.6,40.6798314010004,-73.8383226639996
"27Q650","HIGH SCHOOL FOR CONSTRUCTION TRADES, ENGINEERING AND ARCHITECTURE",194,429,491,425,1345,91,109,21,1.1978021978022,19.2660550458716,27,"Q650",26.8470588235294,31.2352941176471,20.4117647058824,53.7,0.4,5.8,30.7,11.3,41.6,15.4,67.3,32.7,924,88.1,1.1,40.6893968260005,-73.8406410009997
"28Q284","YORK EARLY COLLEGE ACADEMY",NA,NA,NA,NA,NA,NA,NA,NA,NA,NA,28,"Q284",25.1090909090909,28.5454545454545,21.7272727272727,60.2,0,9.6,23.5,64.2,10.2,0.6,51.1,48.9,489,NA,NA,40.6969373580005,-73.7869815409996
"28Q310","QUEENS COLLEGIATE: A COLLEGE BOARD SCHOOL",68,420,445,400,1265,NA,NA,NA,NA,NA,28,"Q310",22.5285714285714,25.8571428571429,19.2142857142857,61.5,8.1,12.3,27,49,18.5,3,49.9,50.1,529,NA,NA,40.7135774590005,-73.7965178249996
"28Q325","HILLSIDE ARTS & LETTERS ACADEMY",NA,NA,NA,NA,NA,NA,NA,NA,NA,NA,28,"Q325",22.75,24.25,21.25,65.6,12.5,11,28,39,21,6.5,47,53,200,NA,NA,40.7135774590005,-73.7965178249996
"28Q338","QUEENS SATELLITE HIGH SCHOOL FOR OPPORTUNITY",6,403,408,367,1178,NA,NA,NA,NA,NA,28,"Q338",27.5538461538462,31.0769230769231,22.6153846153846,74.5,2,6,2.4,61.4,17.5,10,45.4,54.6,251,NA,NA,NA,NA
"28Q350","JAMAICA GATEWAY TO THE SCIENCES",25,430,452,425,1307,NA,NA,NA,NA,NA,NA,NA,NA,NA,NA,60,4.5,7.1,45.1,36.6,15.2,2.7,46.4,53.6,224,NA,NA,40.7135774590005,-73.7965178249996
"28Q440","FOREST HILLS HIGH SCHOOL",762,456,497,454,1407,733,1116,526,1.5225102319236,47.1326164874552,28,"Q440",31.2058823529412,35.5882352941176,19.2941176470588,41.2,8.9,11.3,26.5,9,30.2,33.7,48.1,51.9,3834,84.6,2.5,40.7294315720005,-73.8456290729997
"28Q470","JAMAICA HIGH SCHOOL",90,342,368,353,1063,64,76,8,1.1875,10.5263157894737,28,"Q470",25.4578947368421,31.4736842105263,16.3157894736842,55.8,29.4,14,31,41.7,25.9,1.1,58.9,41.1,564,48.2,18.8,NA,NA
"28Q505","HILLCREST HIGH SCHOOL",462,395,413,386,1194,241,362,50,1.50207468879668,13.8121546961326,28,"Q505",28.8857142857143,31.9285714285714,21.7142857142857,65,15,9,36.5,36.6,22.8,2.9,46.1,53.9,3103,64,12.4,40.7087575550005,-73.8021274859997
"28Q620","THOMAS A. EDISON CAREER AND TECHNICAL EDUCATION HIGH SCHOOL",422,452,478,442,1372,183,244,100,1.33333333333333,40.9836065573771,28,"Q620",29.6166666666667,32.8333333333333,20.3333333333333,54.3,1.4,11.4,50.9,23.7,21.1,3.2,65.1,34.9,2252,84.9,5.4,40.7158762610005,-73.7988223889997
"28Q680","QUEENS GATEWAY TO HEALTH SCIENCES SECONDARY SCHOOL",99,513,523,502,1538,89,136,57,1.52808988764045,41.9117647058824,28,"Q680",27.6111111111111,31.4444444444444,21.6111111111111,55.8,0.1,1.7,36.5,44.8,15.7,2.7,38.1,61.9,783,93.2,0,40.7188100940005,-73.8065004549997
"28Q686","QUEENS METROPOLITAN HIGH SCHOOL",NA,NA,NA,NA,NA,NA,NA,NA,NA,NA,28,"Q686",29.55,30.5,27.5,47.3,3.6,16,12.1,4.8,38.6,40.4,49.6,50.4,663,NA,NA,40.7104355480005,-73.8506301549996
"28Q687","QUEENS HIGH SCHOOL FOR THE SCIENCES AT YORK COLLEGE",121,612,660,596,1868,215,338,275,1.57209302325581,81.3609467455621,28,"Q687",26.0066666666667,31.2666666666667,20.4,25.6,0.2,0.2,74.4,10.5,7.9,6.7,56.5,43.5,418,95.3,0,40.7009987670005,-73.7981535239996
"28Q690","HIGH SCHOOL FOR LAW ENFORCEMENT AND PUBLIC SAFETY",74,406,406,384,1196,19,19,NA,1,NA,28,"Q690",29.34375,32.75,25.375,58.3,2.1,16.6,8.4,73.7,15.1,1.3,53,47,536,76.2,7.9,40.6861780830005,-73.7840829749996
"28Q896","YOUNG WOMEN'S LEADERSHIP SCHOOL, QUEENS",68,439,445,432,1316,6,6,NA,1,NA,28,"Q896",21.8714285714286,26.9285714285714,16.4285714285714,56.9,2.7,9,21,57.3,18.4,2.4,0,100,510,NA,NA,40.7082078260005,-73.8040779459997
"29Q248","QUEENS PREPARATORY ACADEMY",52,360,380,359,1099,15,15,NA,1,NA,29,"Q248",25.6533333333333,28.8666666666667,22.2,52.6,4.5,11.3,5.2,84.4,8.2,0.9,56,44,441,71.6,10.5,40.6682322880005,-73.7568398939996
"29Q259","PATHWAYS COLLEGE PREPARATORY SCHOOL: A COLLEGE BOARD SCHOOL",46,401,397,375,1173,29,71,NA,2.44827586206897,NA,29,"Q259",25.775,29.6666666666667,21.6666666666667,48.8,2.3,16,2.2,94.2,2.9,0.7,53.3,46.7,555,81.3,9.4,40.7063876580005,-73.7535300219997
"29Q265","EXCELSIOR PREPARATORY HIGH SCHOOL",49,402,398,402,1202,NA,NA,NA,NA,NA,29,"Q265",25.2777777777778,28.8888888888889,21.9444444444444,50.8,2.3,14.7,4.3,82.8,9.7,0.5,56.9,43.1,443,60.4,2.2,40.6682322880005,-73.7568398939996
"29Q272","GEORGE WASHINGTON CARVER HIGH SCHOOL FOR THE SCIENCES",59,436,427,424,1287,14,21,NA,1.5,NA,29,"Q272",28.26875,32.5,21.6875,45,1.7,9.1,9.3,73.8,14.1,1.3,47.3,52.7,474,78.6,2.9,40.6682322880005,-73.7568398939996
"29Q283","PREPARATORY ACADEMY FOR WRITERS: A COLLEGE BOARD SCHOOL",43,370,367,363,1100,40,43,NA,1.075,NA,29,"Q283",23.8375,26.5,21,51.2,1.9,14.4,3.4,84.1,10.4,0.8,43.1,56.9,473,77.8,13.9,40.6682322880005,-73.7568398939996
"29Q326","CAMBRIA HEIGHTS ACADEMY",NA,NA,NA,NA,NA,NA,NA,NA,NA,NA,29,"Q326",22.3,23.2,21.4,71.1,2,13.6,3.4,87.1,7.5,2,55.1,44.9,147,NA,NA,40.7118182200005,-73.7711918759996
"29Q492","MATHEMATICS, SCIENCE RESEARCH AND TECHNOLOGY MAGNET HIGH SCHOOL",78,400,426,394,1220,22,31,8,1.40909090909091,25.8064516129032,29,"Q492",23.525,28.375,17.375,47.9,5.1,10.4,6.8,79.6,11.9,0.7,60.4,39.6,412,67.6,9.3,40.6955363360005,-73.7349183419997
"29Q494","LAW, GOVERNMENT AND COMMUNITY SERVICE HIGH SCHOOL",52,385,377,377,1139,NA,NA,NA,NA,NA,29,"Q494",28.1588235294118,31.5294117647059,24.0588235294118,45.1,2.9,13.9,4.4,83.3,10.6,0.9,48.7,51.3,454,57.6,10.4,NA,NA
"29Q496","BUSINESS, COMPUTER APPLICATIONS & ENTREPRENEURSHIP HIGH SCHOOL",49,379,414,359,1152,NA,NA,NA,NA,NA,29,"Q496",31.6666666666667,34.9333333333333,27.8666666666667,43.5,6.5,19,6.2,85.3,5.4,0.8,67.1,32.9,353,44.8,19,NA,NA
"29Q498","HUMANITIES & ARTS MAGNET HIGH SCHOOL",62,393,381,377,1151,NA,NA,NA,NA,NA,29,"Q498",28.2076923076923,31.3846153846154,24,51.5,3.5,14.8,4,85.9,8.5,1.5,42.8,57.2,481,76.6,6.4,40.6955363360005,-73.7349183419997
"30Q286","YOUNG WOMEN'S LEADERSHIP SCHOOL, ASTORIA",NA,NA,NA,NA,NA,NA,NA,NA,NA,NA,30,"Q286",21.5714285714286,23,20.2857142857143,68.1,5.5,5.3,39.2,4.2,40.4,16.2,0,100,495,NA,NA,40.7712508960005,-73.9246016709997
"30Q301","ACADEMY FOR CAREERS IN TELEVISION AND FILM",98,410,440,405,1255,NA,NA,NA,NA,NA,30,"Q301",22.3636363636364,25.4545454545455,17.2727272727273,54.1,2.9,14.6,6,20.5,53.5,18.9,53.2,46.8,419,NA,NA,40.7411373280005,-73.9496885989997
"30Q445","WILLIAM CULLEN BRYANT HIGH SCHOOL",395,414,449,412,1275,243,330,97,1.35802469135802,29.3939393939394,30,"Q445",29.25,34.5,18.25,33.7,17.9,12.1,28.9,7.3,48.8,14.5,53.7,46.3,2945,55.4,13.6,40.7581246750005,-73.9103333089997
"30Q450","LONG ISLAND CITY HIGH SCHOOL",392,403,420,395,1218,406,805,169,1.98275862068966,20.9937888198758,30,"Q450",25,31.9473684210526,14.2631578947368,62.8,13.2,13.8,13.2,11.4,62.7,12.5,51.3,48.7,3386,58.5,12.8,40.7657639380005,-73.9327259849997
"30Q501","FRANK SINATRA SCHOOL OF THE ARTS HIGH SCHOOL",174,504,496,494,1494,108,136,38,1.25925925925926,27.9411764705882,30,"Q501",27.88,33.5333333333333,20.5333333333333,29.7,0.1,1.9,8.7,16.9,27.2,46.3,30,70,756,94.7,1.8,40.7565280740005,-73.9251406439997
"30Q502","INFORMATION TECHNOLOGY HIGH SCHOOL",148,407,434,398,1239,51,74,13,1.45098039215686,17.5675675675676,30,"Q502",26.8352941176471,31.3529411764706,19.5294117647059,73.7,9.6,16,15.6,18.1,56.6,9.4,71.8,28.2,917,67.4,12.4,40.7479235230004,-73.9465656589997
"30Q555","NEWCOMERS HIGH SCHOOL",143,323,475,329,1127,119,163,140,1.36974789915966,85.8895705521472,30,"Q555",26.9764705882353,30.8235294117647,20,81.2,90.3,0,48.3,5.6,43.5,2.6,53.2,46.8,932,66.4,14.5,40.7513808340005,-73.9374497189996
"30Q575","ACADEMY OF AMERICAN STUDIES",135,487,492,491,1470,101,170,119,1.68316831683168,70,30,"Q575",31.0947368421053,34.1578947368421,26.3684210526316,52.4,5.7,8,29.1,6.8,34.7,29.4,45,55,704,80.6,1.9,40.7513005780005,-73.9374238769997
"30Q580","BACCALAUREATE SCHOOL FOR GLOBAL EDUCATION",61,524,568,544,1636,NA,NA,NA,NA,NA,30,"Q580",20.4692307692308,23.0769230769231,17.3076923076923,32.2,0,0.2,34.8,3.2,24.3,37.3,44.8,55.2,440,98.6,1.4,40.7551748330005,-73.9268236139997
"31R047","CSI HIGH SCHOOL FOR INTERNATIONAL STUDIES",137,452,451,450,1353,NA,NA,NA,NA,NA,31,"R047",25.66875,30.0625,20.125,29,0.2,13.9,11.5,12,17.9,58.5,41.5,58.5,532,95,1.3,40.5820220260005,-74.1578484189996
"31R064","GAYNOR MCCOWN EXPEDITIONARY LEARNING SCHOOL",61,398,412,385,1195,NA,NA,NA,NA,NA,31,"R064",24.35,28.5,20.25,35.4,1,22.8,5.9,15.7,17.6,60,52,48,408,NA,NA,40.5820220260005,-74.1578484189996
"31R080","THE MICHAEL J. PETRIDES SCHOOL",107,472,488,466,1426,162,243,66,1.5,27.1604938271605,31,"R080",30.2722222222222,34.4444444444444,24.6111111111111,32.3,1.6,18.5,8.1,18.8,16.9,55.9,49.2,50.8,1308,88.5,2.7,40.6074530240004,-74.1014822299996
"31R440","NEW DORP HIGH SCHOOL",391,424,437,416,1277,96,118,62,1.22916666666667,52.5423728813559,31,"R440",28.2,34.5555555555556,17,42.3,5.9,16.9,7,12.1,27.3,53.3,52.5,47.5,2658,73.7,8.8,40.5691824270005,-74.1073008079996
"31R445","PORT RICHMOND HIGH SCHOOL",271,424,438,417,1279,194,304,76,1.56701030927835,25,31,"R445",28.0789473684211,33.1052631578947,17.7368421052632,53.3,5.3,20.9,6.8,30.9,37.6,24.2,54.8,45.2,2151,63.6,10.6,40.6338429870005,-74.1421068889996
